ID,Arrondissement,Nom_parc_lieu,Proximite_jeux_repere,Intersection,Etat,Remarques,Precision_localisation,X,Y,Latitude,Longitude
1,Saint-Léonard,Delorme,bocce,rue Loranger/rue Péguy,,,orthophotographies,297819.89,5050237.94,45.5920117541965,-73.589462375603
2,Saint-Léonard,Delorme,pavillon,rue Loranger/rue Péguy,,,orthophotographies,297773.67,5050257.68,45.5921889147626,-73.5900550494669
3,Saint-Léonard,Delorme,pavillon,rue Loranger/rue Péguy,,,orthophotographies,297855.21,5050101.09,45.5907806932441,-73.5890077418093
4,Saint-Léonard,Delorme,montagne,rue Loranger/rue Péguy,,,orthophotographies,297774.77,5050256.8,45.5921810073908,-73.590040938345
5,Saint-Léonard,Delorme,basketball et soccer,entrée boulevard Robert,,,orthophotographies,297654.59,5050300.62,45.5925740874714,-73.5915819002069
6,Saint-Léonard,Ferland,pavillon,rue Belcourt /boulevard Lavoisier,,,orthophotographies,297118.07,5050704,45.5961980909595,-73.5984647530588
7,Saint-Léonard,Ferland,piscine,rue Belcourt /boulevard Lavoisier,,accès restreint,orthophotographies,297138.85,5050685.88,45.5960352715738,-73.5981981170499
8,Saint-Léonard,Pie-XII,bocce,rue Jean-Marie Lefebvre/boul. Lavoisier,,,orthophotographies,296529.51,5050026.57,45.5900956399991,-73.6059972563072
9,Saint-Léonard,Pie-XII,basketball,rue Dujarié/rue Le Corbusier,,,orthophotographies,296526.98,5049953.5,45.5894381057632,-73.6060284435696
10,Saint-Léonard,Pie-XII,piscine,rue Dujarié/rue de Nevers,,accès restreint,orthophotographies,296464.97,5049913.19,45.5890746447919,-73.6068224849356
11,Saint-Léonard,Pie-XII,piscine,rue Dujarié/rue de Nevers,,accès restreint,orthophotographies,296464.26,5049912.13,45.5890650981076,-73.6068315662484
12,Saint-Léonard,Coubertin,pavillon,rue Valéry/rue Narbonne,,,orthophotographies,296215.93,5049339.91,45.5839130808075,-73.6100041217273
13,Saint-Léonard,Coubertin,pavillon,rue Valéry/rue Narbonne,,,orthophotographies,296215.93,5049338.32,45.5838987735332,-73.6100040937848
14,Saint-Léonard,Luigi-Pirandello,bocce,rue Jean-Rivard/rue de Nice,,,orthophotographies,296717.63,5048690.13,45.5780721805316,-73.6035641400041
15,Saint-Léonard,Hébert (Stade),baseball,rue Colbert/boul. Métropolitain Est,,,orthophotographies,297450.41,5048206.42,45.5737277378482,-73.5941673390367
16,Saint-Léonard,Hébert (Stade),soccer,rue de Viterbe/rue de Viterbe,,,orthophotographies,297595.18,5048152.18,45.5732411836133,-73.5923116621237
17,Saint-Léonard,Hébert (Stade),pavillon,rue Colbert/boul. Provencher,,,orthophotographies,297620.82,5048037.96,45.5722136618172,-73.5919814726014
18,Saint-Léonard,Hébert (Stade),stade (l'entrée sous-sol),rue Colbert/boul. Métropolitain Est,,,orthophotographies,297518.57,5048198.03,45.5736529585963,-73.5932939085551
19,Saint-Léonard,Hébert (Parc),piscine,rue Colbert/boul. Provencher,,accès restreint,orthophotographies,297589.11,5048062.64,45.5724354122334,-73.5923881127418
20,Saint-Léonard,Hébert (Parc),piscine,rue Colbert/boul. Provencher,,accès restreint,orthophotographies,297587.9,5048061.19,45.5724223521469,-73.5924035942125
21,Saint-Léonard,Hébert (Parc),piscine,rue Colbert/boul. Provencher,,accès restreint,orthophotographies,297575.68,5048086.1,45.5726463732631,-73.5925605285234
22,Saint-Léonard,Hébert (Parc),piscine,rue Colbert/boul. Provencher,,accès restreint,orthophotographies,297577.76,5048084.96,45.5726361367813,-73.592533862021
23,Saint-Léonard,Hébert (Parc),piscine,rue Colbert/boul. Provencher,,accès restreint,orthophotographies,297579.26,5048083.81,45.5726258042923,-73.5925146265321
24,Saint-Léonard,Hébert (Parc),piscine,rue Colbert/boul. Provencher,,accès restreint,orthophotographies,297581.13,5048082.8,45.5726167354014,-73.5924906525568
25,Saint-Léonard,Hébert (Parc),carré de sable,rue Colbert/boul. Provencher,,,orthophotographies,297575.08,5048019.23,45.5720446501215,-73.5925672274284
26,Saint-Léonard,Ladauversière,bocce,rue de Meudon/boul. Lacordaire,,,orthophotographies,298274.39,5049047.39,45.5813032552857,-73.5836212582356
27,Saint-Léonard,Ladauversière,piscine,rue de Meudon/boul. Lacordaire,,accès restreint,orthophotographies,298309.22,5049078.31,45.5815818084528,-73.5831753467495
28,Saint-Léonard,Ladauversière,piscine,rue de Meudon/boul. Lacordaire,,accès restreint,orthophotographies,298350.2,5049103.86,45.5818120960631,-73.5826505511845
29,Saint-Léonard,Ladauversière,piscine,rue de Meudon/boul. Lacordaire,,accès restreint,orthophotographies,298358.77,5049108.4,45.5818530277291,-73.5825407914425
30,Saint-Léonard,Ladauversière,piscine,rue de Meudon/boul. Lacordaire,,accès restreint,orthophotographies,298312.39,5049071.44,45.5815200197243,-73.5831346339605
31,Saint-Léonard,Ladauversière,baseball,rue Jean-Talon Est/rue de Pontoise,,,orthophotographies,298489.01,5049176.95,45.5824710546093,-73.5808727253446
32,Saint-Léonard,Giuseppe-Garibaldi,piscine,rue de Côme/rue La Dauversière,,accès restreint,orthophotographies,299177.5,5049649.24,45.586726764106,-73.5720554549725
33,Saint-Léonard,Giuseppe-Garibaldi,pavillon,rue de Côme/rue La Dauversière,,,orthophotographies,299163.16,5049603.25,45.5863128166389,-73.5722386990733
34,Saint-Léonard,Giuseppe-Garibaldi,pavillon,rue de Côme/rue La Dauversière,,,orthophotographies,299160.52,5049604.25,45.586321793531,-73.5722725434083
35,Saint-Léonard,Giuseppe-Garibaldi,baseball,rue Liénard/rue La Dauversière,,,orthophotographies,299039.32,5049611.05,45.5863819887031,-73.573825856362
36,Saint-Léonard,Saint-Léonard,pavillon de la scène,boul. Lacordaire/rue des Galets,,,orthophotographies,297412.2,5049561.24,45.5859184052737,-73.5946773947037
37,Saint-Léonard,Saint-Léonard,pavillon de la scène,boul. Lacordaire/rue des Galets,,,orthophotographies,297418.27,5049552.31,45.5858381150145,-73.5945994705437
38,Saint-Léonard,Saint-Léonard,pavillon de la scène,boul. Lacordaire/rue des Galets,,,orthophotographies,297425.29,5049566.73,45.585967944774,-73.5945097246301
39,Saint-Léonard,Saint-Léonard,pavillon de la scène,boul. Lacordaire/rue des Galets,,,orthophotographies,297428.27,5049557.43,45.5858842922942,-73.5944713944749
40,Saint-Léonard,aréna Martin-Brodeur,soccer,rue des Galets/rue de l'Aunis,,,orthophotographies,297119.5,5049569.42,45.5859888409044,-73.5984285768339
41,Saint-Léonard,aréna Martin-Brodeur,aréna,rue des Galets/rue de l'Aunis,,,orthophotographies,297102.72,5049449.89,45.5849130902329,-73.5986417349467
42,Saint-Léonard,aréna Martin-Brodeur,aréna,rue des Galets/rue de l'Aunis,,,orthophotographies,297107.02,5049453.19,45.5849428321497,-73.5985866818955
43,Ahuntsic-Cartierville,Prieur,jardins communautaires,rue Sackville/rue Prieur Est,,accès restreint,orthophotographies,293151.73,5048680.08,45.5779311872942,-73.6492557330476
44,Ahuntsic-Cartierville,,jardins communautaires,rue Frémont/avenue De Chateaubriand,,accès restreint,orthophotographies,292953.69,5045875.79,45.5526940005986,-73.6517253756271
45,Ahuntsic-Cartierville,,jardins communautaires,rue Deschamps/rue Letellier,,accès restreint,orthophotographies,289589.09,5044953.59,45.54433039908,-73.6947896703629
46,Ahuntsic-Cartierville,,jardins communautaires,rue Deschamps/rue Letellier,,accès restreint,orthophotographies,288688.91,5042752.27,45.5245019742243,-73.7062448098801
47,Ahuntsic-Cartierville,du Petit-Bois-Franc,jardins communautaires,rue Dudemaine/rue Grenet,,accès restreint,orthophotographies,289590.59,5044960.86,45.5443958495668,-73.694770687498
48,Ahuntsic-Cartierville,Ahuntsic (près de),jardins communautaires,avenue Durham/boul. Henri-Bourassa Est,,accès restreint,orthophotographies,291837.96,5046357.6,45.5570096029911,-73.6660281500602
49,Ahuntsic-Cartierville,Marcelin-Wilson,jardins communautaires,avenue Marcelin-Wilson/rue Defoy,,accès restreint,orthophotographies,290512.32,5044177.23,45.5373640079733,-73.6829442674349
50,Ahuntsic-Cartierville,Saint-Sulpice (JC),jardins communautaires,ave Émile-Journault/ave André-Grasset,,accès restreint,orthophotographies,294235.31,5046379.95,45.5572512175254,-73.6353215573431
51,Ahuntsic-Cartierville,Saint-Sulpice (JC),jardins communautaires,ave Émile-Journault/ave André-Grasset,,accès restreint,orthophotographies,294184.58,5046303.11,45.5565590150628,-73.6359696810356
52,Ahuntsic-Cartierville,Du Sault-au-Récollets (JC),jardins communautaires,rue du Pressoir (tourne-bride)/boul. Gouin Est,,accès restreint,orthophotographies,292333.66,5048494.82,45.5762499897693,-73.6597333507135
53,Ahuntsic-Cartierville,Ahuntsic,,rue Lajeunesse/rue Prieur Est,,,orthophotographies,291787.23,5046257.8,45.5561106256678,-73.6666752827003
54,Ahuntsic-Cartierville,Avila-Vidal,module de jeux,rue Filion/rue de la Paix,,,orthophotographies,289515.25,5043300.34,45.5294523034188,-73.6956836482082
55,Ahuntsic-Cartierville,De Beauséjour,,boul. Gouin Ouest/rue Henri-D'Arles,,,orthophotographies,286655.11,5043216.86,45.5286325299218,-73.7322973382624
56,Ahuntsic-Cartierville,Du Cardinal-Paul-Émile-Léger,,rue Chabanel Est/ave De Galinée,,,orthophotographies,293685.77,5046588.35,45.5591179113194,-73.6423652483467
57,Ahuntsic-Cartierville,Du Boisé-De-Saint-Sulpice,,ave Olivier-Maurault/rue Legendre Est,,,orthophotographies,293771.51,5046057.51,45.5543426076567,-73.6412550160094
58,Ahuntsic-Cartierville,De Bordeaux,,rue Viel/boul. de l'Acadie,,,orthophotographies,289197.05,5044677.87,45.5418407134645,-73.6998012836626
59,Ahuntsic-Cartierville,Roland-Giguère,,Place de l'Acadie (tourne-bride),,,orthophotographies,290685.06,5043602.12,45.5321924961963,-73.6807158813562
60,Ahuntsic-Cartierville,D'Auteuil,baseball,rue Saint-Denis/rue Sauvé Est,,,orthophotographies,292630.73,5045446.11,45.548822033059,-73.6558510868443
61,Ahuntsic-Cartierville,D'Auteuil,pavillon,rue Saint-Denis/rue Sauvé Est,,,orthophotographies,292562.6,5045548.7,45.5497439773201,-73.656726185786
62,Ahuntsic-Cartierville,D'Auteuil,,rue Saint-Denis/rue Sauvé Est,,,orthophotographies,292510,5045500.53,45.5493096019002,-73.6573986293737
63,Ahuntsic-Cartierville,Ahuntsic,,rue Lajeunesse/rue Prieur Est,,,orthophotographies,292107.24,5046329.48,45.5567615314066,-73.6625782814415
64,Ahuntsic-Cartierville,Ahuntsic,,rue Lajeunesse/rue Prieur Est,,,orthophotographies,292107.24,5046329.48,45.5567615314066,-73.6625782814415
65,Ahuntsic-Cartierville,De la Merci,,boul. Gouin Est/rue Poincaré,,,orthophotographies,289403.22,5045174.2,45.546311432748,-73.6971768320911
66,Ahuntsic-Cartierville,De Mésy,,rue Legault/rue Grenet,,,orthophotographies,287819.83,5043362.35,45.5299710451682,-73.7173913333422
67,Ahuntsic-Cartierville,Des Hirondelles,,rue Fleury Est/rue Larose,,,orthophotographies,293882.41,5048443.23,45.5758117920313,-73.6398878627745
68,Ahuntsic-Cartierville,Des Hirondelles,,rue Fleury Est/rue Larose,,,orthophotographies,293830.99,5048325.81,45.5747544042729,-73.6405440732804
69,Ahuntsic-Cartierville,Des Hirondelles,,rue Fleury Est/rue Larose,,,orthophotographies,293743.44,5048479.59,45.5761367754353,-73.6416693125804
70,Ahuntsic-Cartierville,Des Hirondelles,,rue Fleury Est/rue Larose,,,orthophotographies,293469.35,5048691.27,45.5780371229728,-73.6451861649691
71,Ahuntsic-Cartierville,Gabriel-Lalemant,,rue de Lille/rue Sauvé Est,,,orthophotographies,293648.93,5047932.46,45.5712120325848,-73.6428677953635
72,Ahuntsic-Cartierville,Gabreil-Lalemand,,rue Sauvé Est/rue de Lille,,,orthophotographies,293655.1,5047941.81,45.5712962654717,-73.6427889586055
73,Ahuntsic-Cartierville,Henri-Julien,,rue Saint-Denis/rue Legendre Est,,,orthophotographies,293660.36,5047951.68,45.5713851628507,-73.642721792405
74,Ahuntsic-Cartierville,Henri-Julien,,rue Saint-Denis/rue Legendre Est,,,orthophotographies,293129.31,5045314.83,45.5476492655392,-73.6494626952386
75,Ahuntsic-Cartierville,Henri-Julien,,rue Saint-Denis/rue Legendre Est,,,orthophotographies,293130.87,5045310.16,45.5476072694801,-73.6494426055465
76,Ahuntsic-Cartierville,Henri-Julien,,rue Saint-Denis/rue Legendre Est,,,orthophotographies,293109.09,5045210.14,45.5467068913082,-73.6497191443933
77,Ahuntsic-Cartierville,Henri-Julien,,rue Saint-Denis/rue Legendre Est,,,orthophotographies,293017.24,5045327.11,45.5477578781529,-73.6508982296043
78,Ahuntsic-Cartierville,Henri-Julien,,rue Saint-Denis/rue Legendre Est,,,orthophotographies,293019.18,5045330.78,45.5477909348337,-73.6508734730469
79,Ahuntsic-Cartierville,Henri-Julien,,rue Saint-Denis/rue Legendre Est,,,orthophotographies,293013.12,5045351.45,45.5479768277479,-73.6509515792422
80,Ahuntsic-Cartierville,Henri-Julien,,rue Saint-Denis/rue Legendre Est,,,orthophotographies,293204.3,5045290.96,45.5474357279059,-73.64850176061
81,Ahuntsic-Cartierville,Henri-Julien,,rue Saint-Denis/rue Legendre Est,,,orthophotographies,292811.77,5045387.69,45.5482994905555,-73.6535310960871
82,Ahuntsic-Cartierville,Henri-Julien,,rue Saint-Denis/rue Legendre Est,,,orthophotographies,292940.52,5045395.48,45.5483717917014,-73.6518824127463
83,Ahuntsic-Cartierville,J.-J.-Gagnier,,rue J.-J.-Gagnier/rue Prieur Est,,,orthophotographies,293186.26,5048936.75,45.5802413529268,-73.6488193836908
84,Ahuntsic-Cartierville,Jean-Matucci,,ave. André-Grasset/ave. Émile-Journault,,,orthophotographies,294303.18,5046270.61,45.5562683676585,-73.6344498765934
85,Ahuntsic-Cartierville,Jean-Matucci,,ave. André-Grasset/ave. Émile-Journault,,,orthophotographies,294309.65,5046247.87,45.5560638433353,-73.6343665173268
86,Ahuntsic-Cartierville,Jeanne-Sauvé (parc du pont Ahuntsic),,rue Basile-Routhier/ave. Parc Stanley,,,orthophotographies,291311.43,5046366,45.5570751877587,-73.6727725677358
87,Ahuntsic-Cartierville,Lefebvre,,rue Cousineau/rue Laurin,,,orthophotographies,287416.23,5043075.41,45.5273791165665,-73.7225482655434
88,Ahuntsic-Cartierville,Lomer-Gouin,,rue De Saint-Firmin/boul. Gouin Est,,,orthophotographies,292400.48,5048161.69,45.5732535859795,-73.6588687254571
89,Ahuntsic-Cartierville,De Louisbourg,,rue De Louisbourg/rue De Meulles,,,orthophotographies,288649.87,5043302.87,45.5294555533529,-73.7067627243823
90,Ahuntsic-Cartierville,De Louisbourg,,rue De Louisbourg/rue De Meulles,,,orthophotographies,288616.64,5043185.73,45.5284007181151,-73.7071842802364
91,Ahuntsic-Cartierville,De Louisbourg,,rue De Louisbourg/rue De Meulles,,,orthophotographies,288600.47,5043243.34,45.5289187362999,-73.7073931971887
92,Ahuntsic-Cartierville,Marcelin-Wilson,,boul. de l'Acadie/rue Dudemaine,,,orthophotographies,290331.33,5044135.17,45.536981803372,-73.685260469424
93,Ahuntsic-Cartierville,Marcelin-Wilson,,boul. de l'Acadie/rue Dudemaine,,,orthophotographies,290350.95,5044125.36,45.5368939368997,-73.6850089618831
94,Ahuntsic-Cartierville,Marcelin-Wilson,,boul. de l'Acadie/rue Dudemaine,,,orthophotographies,290367.11,5044112.67,45.536780083019,-73.684801672572
95,Ahuntsic-Cartierville,Marcelin-Wilson,,boul. de l'Acadie/rue Dudemaine,,,orthophotographies,290391.92,5044097.09,45.5366404025044,-73.6844835434965
96,Ahuntsic-Cartierville,Maurice-Richard,,ave. Park Stanley/rue Basile-Routhier,,,orthophotographies,291256,5046411.88,45.5574869538941,-73.6734838273432
97,Ahuntsic-Cartierville,Nicolas-Viel,,boul. Gouin Ouest/rue Saint-Urbain,,,orthophotographies,290964.72,5045655.96,45.5506792271635,-73.6771934103038
98,Ahuntsic-Cartierville,Nicolas-Viel,,boul. Gouin Ouest/rue Saint-Urbain,,,orthophotographies,290966.02,5045661.89,45.5507326129766,-73.6771769284716
99,Ahuntsic-Cartierville,Olympia/Gouin,,boul. Gouin Est/boul. Olympia,,,orthophotographies,291996.46,5047112.49,45.5638052642209,-73.6640177269551
100,Ahuntsic-Cartierville,Stanley/rue piétonne,,ave. Park Stanley/ave. Durham,,,orthophotographies,291288.51,5046442.36,45.5577618537941,-73.6730682536757
101,Ahuntsic-Cartierville,Rosanne-Laflamme,,boul. O'Brien/rue Dudemaine,,,orthophotographies,289173.31,5043128.27,45.5278963770113,-73.7000558338182
102,Ahuntsic-Cartierville,Saint-Alphonse,,ave. Émile-Journault/ave. De Chateaubriand,,,orthophotographies,293831.96,5045535.49,45.5496462564262,-73.6404690611218
103,Ahuntsic-Cartierville,Saint-Alphonse,,ave. Émile-Journault/ave. De Chateaubriand,,,orthophotographies,293981.45,5045446.01,45.5488434239487,-73.6385525514252
104,Ahuntsic-Cartierville,Saint-André-Apôtre,,rue Prieur Ouest/ave. de l'Esplanade,,,orthophotographies,291473.29,5045153,45.5461633503817,-73.6706663041195
105,Ahuntsic-Cartierville,Saint-André-Apôtre,,rue Prieur Ouest/ave. de l'Esplanade,,,orthophotographies,291423.42,5045161.79,45.5462414897022,-73.6713051933843
106,Ahuntsic-Cartierville,Saint-Benoît,,rue Meilleur/rue Sauvé Ouest,,,orthophotographies,291816.18,5044545.09,45.5406996525384,-73.6662590343114
107,Ahuntsic-Cartierville,Sainte-Odile,,rue De Salaberry/rue Marsan,,,orthophotographies,288817.12,5043857.08,45.5344463717281,-73.7046395979109
108,Ahuntsic-Cartierville,Sainte-Odile,,rue De Salaberry/rue Marsan,,,orthophotographies,288775.21,5043938.22,45.5351755330588,-73.7051788515544
109,Ahuntsic-Cartierville,Sainte-Odile,,rue De Salaberry/rue Marsan,,,orthophotographies,288427.52,5044006.19,45.5357790660945,-73.709632861559
110,Ahuntsic-Cartierville,Saint-Paul-de-la-Croix,,rue Sauriol Est/ave. Hamel,,,orthophotographies,292831.25,5046832.43,45.5613000527921,-73.6533169667666
111,Ahuntsic-Cartierville,Saint-Paul-de-la-Croix,,ave. Hamel/rue Sauvé Est,,,orthophotographies,292945.4,5046756.6,45.5606196642886,-73.6518528982769
112,Ahuntsic-Cartierville,Saint-Simon-Apôtre,,rue Meunier/rue Legendre Est,,,orthophotographies,293149.89,5044456.84,45.5399291284247,-73.6491787141556
113,Ahuntsic-Cartierville,de Salaberry,,rue Pasteur/rue de Louisbourg,,,orthophotographies,289654.38,5044304.26,45.5384889439353,-73.6939334879104
114,Ahuntsic-Cartierville,du Sault-au-Récollet,,ave. Charton/rue Fleury Est,,,orthophotographies,292879.52,5047784.86,45.5698711311723,-73.6527218623452
115,Ahuntsic-Cartierville,du Sault-au-Récollet,,ave. Charton/rue Fleury Est,,,orthophotographies,292835.47,5047872.51,45.5706590755614,-73.6532883620273
116,Ahuntsic-Cartierville,Tolhurst,,rue Tolhurst/rue Fleury Ouest,,,orthophotographies,291886.3,5044916.85,45.5440461751636,-73.6653709519651
117,Ahuntsic-Cartierville,Victor-Barbeau,,rue Lucien-Plante/rue Ernest-Savignac,,,orthophotographies,294583.6,5046316.56,45.5566860114634,-73.6308590500136
118,Lachine,,piste de course,rue Esther-Blondin/rue Duff Court,,école secondaire Dalbé-Viau,orthophotographies,290727.24,5033930.29,45.4451622720691,-73.6798985861241
119,Lachine,Carignan,,42² ave/rue Provost,,,orthophotographies,288995.91,5033706.95,45.4431155533198,-73.7020236724136
120,Lachine,Dixie,,rue Victoria/54²ave,,,orthophotographies,287728.33,5033782.23,45.4437631502532,-73.7182296445682
121,Lachine,de la Renaissance,,ter. Louis-Basile_pigeon/ter.J.-S.-Aimé-Ashby,,,orthophotographies,289956.51,5033985.23,45.445640706095,-73.6897527879088
122,Lachine,Lasalle,,rue Victoria/10e ave,,,orthophotographies,291277.6,5033081.49,45.437535220174,-73.6728397903953
123,Lachine,Lasalle,,16e ave/rue Remembrance,,,orthophotographies,290983.65,5033112.99,45.4378129256955,-73.6765978490507
124,Lachine,Lasalle,stade,rue Saint-Ambroise/10e ave,,,orthophotographies,291310.61,5033287.33,45.4393881073424,-73.672423508368
125,Lachine,Lasalle,face au stade,10e ave/rue Saint-Ambroise,,,orthophotographies,291285.22,5033279.31,45.4393154491021,-73.6727478256452
126,Lachine,Lasalle,,rue Saint-Antoine/13e ave,,,orthophotographies,290973.32,5033326.31,45.4397322791747,-73.6767358769674
127,Lachine,Stoney Point,,boul. Saint-Joseph/46e ave,,,orthophotographies,288624.13,5032961.24,45.4363967988034,-73.7067515964051
128,Lachine,Saint-Louis,,boul. Saint-Joseph/32e ave,,,orthophotographies,289726.63,5032607.49,45.4332382208168,-73.6926492640046
129,Lachine,Village Saint-Louis,,rue Dalbé-Viau,,,orthophotographies,289434.38,5033821.1,45.4441525043676,-73.6964223087907
130,Lachine,Monk,,boul. Saint-Joseph/7e ave,,,orthophotographies,291448.26,5032370.28,45.431138677538,-73.6706391802007
131,Lachine,Brewster,,rue Broadway/44e ave,,,orthophotographies,288785.58,5032991.65,45.4366741589851,-73.7046890287225
132,Lachine,Grovehill,,rue Saint-Antoine/33e ave,,,orthophotographies,289611.5,5033420.94,45.4405555457854,-73.6941458049357
135,Lachine,Rosewood,,rue Rosewood/ave de Mount Vernon,,,orthophotographies,292866.13,5034445.43,45.4498375420882,-73.6525687702488
136,Lachine,Wilfrid-Vincent,,rues des Érables/ave Richardson,,,orthophotographies,292849.24,5033780.16,45.4438508299377,-73.6527685400731
137,Lachine,Sainte-Anne,,rue Provost/24e ave,,,orthophotographies,290340.85,5033539.99,45.4416422802227,-73.6848264937758
138,Verdun,Arthur-Therrien,,boul. Gaétan-Laberge/rue Rhéaume,,,orthophotographies,299963.51,5036342.72,45.4669954529513,-73.5618509460977
139,Verdun,Arthur-Therrien,,boul. Gaétan-Laberge/rue Hickson,,,orthophotographies,299954.98,5036007.6,45.4639798217384,-73.5619567276014
140,Verdun,Lacoursière,,chemin du Golf/rue des Camélias,,,orthophotographies,300864.9,5036251.56,45.4661808111553,-73.5503228895367
141,Verdun,Desmarchais,,boul. Lasalle/5e ave,,,orthophotographies,299821.62,5035074.19,45.4555796005352,-73.5636526445142
142,Verdun,Centre communautaire Marcel Giroux,cour arrière,rue Willibrord/rue Bannantyne,,,orthophotographies,298798.49,5035490.82,45.4593206045246,-73.5767392694651
143,Verdun,Adrien-D.Archambault,soccer,boulevard de la Forêt,,,orthophotographies,300300.8,5035022.26,45.4551155581432,-73.5575254659587
144,Verdun,Adrien-D.Archambault,soccer,boulevard de la Forêt,,,orthophotographies,300289.34,5035152.93,45.4562913183312,-73.5576731886907
145,Verdun,Duquette,,rue Newmarch/rue Dupuis,,,orthophotographies,298957.81,5036209.29,45.4657870976596,-73.574710639152
146,Verdun,Elgard,tennis,rue Elgar (tourne-bride),,,orthophotographies,301084.09,5035309.31,45.4577031823754,-73.5475127202215
147,Verdun,Archie-Wilcox,jardins communautaires,boul. Lasalle/rue Melrose,,,orthophotographies,299714.67,5034772.92,45.4528678517425,-73.5650169713038
148,Verdun,Natatorium,piscine,boul. Lasalle/rue Stephens,,accès restreint,orthophotographies,298849.41,5033734.67,45.4435183172986,-73.5760669275707
149,Verdun,Natatorium,piscine,boul. Lasalle/rue Stephens,,accès restreint,orthophotographies,298863.68,5033752.93,45.4436827515381,-73.575884733325
150,Verdun,Natatorium,piscine,boul. Lasalle/rue Stephens,,accès restreint,orthophotographies,298882.28,5033686.51,45.4430852277618,-73.575646168602
151,Verdun,Norman-Dawe,,rue Woodland/rue Bannantyne,,,orthophotographies,298654.19,5034732.6,45.4524965101464,-73.5785749067769
152,Verdun,Adrien-D.Archambault,,Chemin de la Pointe-Sud/rue des Parulines,,,orthophotographies,300831.31,5034326.94,45.4488619304488,-73.5507369114423
153,Verdun,de l'Honorable-George-O'Reilly,,boul. Lasalle/rue Riverview,,,orthophotographies,299154.55,5034048.54,45.446345212171,-73.5721698999103
154,Verdun,de l'Honorable-George-O'Reilly,,boul. Lasalle/rue Godin,,,orthophotographies,299226.23,5034083.27,45.4466583057978,-73.571253956423
155,Verdun,De La Fontaine,tennis,place de la Fontaine (tourne-bride),,,orthophotographies,301333.59,5035991.01,45.4638387384392,-73.5443273472831
156,Verdun,De La Fontaine,,place de la Fontaine (tourne-bride),,,orthophotographies,301274.9,5035926.68,45.4632595718719,-73.5450773947526
157,Verdun,,,Chemin de la Pointe-Nord/rue de la Rotonde,,,orthophotographies,301784.16,5037007.47,45.4729874270676,-73.5385718408805
158,Verdun,de la Reine-Élizabeth,,rue Crawford/rue Penniston,,,orthophotographies,297595.65,5033197.84,45.4386758464251,-73.5920859768643
159,Verdun,Arthur-Therrien,baseball,boul. Gaétan-Laberge,,,orthophotographies,300017.6,5036247.97,45.4661432191555,-73.5611583002149
160,Verdun,Arthur-Therrien,baseball,boul. Gaétan-Laberge,,,orthophotographies,299998.45,5036271.07,45.4663509527397,-73.561403419828
161,Verdun,Labelle,,rue Henri-Duhamel/rue de Verdun,,,orthophotographies,299299.37,5036956.41,45.4725128131732,-73.5703510944878
162,Verdun,Willibrord,,rue Bannantyne/rue Willibrord,,,orthophotographies,298878,5035496.19,45.4593696049074,-73.5757226676873
163,Verdun,Woodland,,rue Woodland/rue Wellington,,,orthophotographies,299541.09,5034672.63,45.4519641070232,-73.5672351528308
164,Verdun,De La Fontaine,,place de la Fontaine (tourne-bride),,,orthophotographies,301392.54,5036011.25,45.4640211579132,-73.5435736539818
165,Verdun,De La Fontaine,,place de la Fontaine (tourne-bride),,,orthophotographies,301374.5,5036071.43,45.4645625987446,-73.5438047638256
166,Verdun,De La Fontaine,,place de la Fontaine/rue Berlioz,,,orthophotographies,301467.79,5035914.1,45.4631473176096,-73.5426107195395
167,Le Sud-Ouest,Brewster,,ave Brewster/rue Saint-Jacques,,,orthophotographies,298364.38,5038083.51,45.4826469881113,-73.5823240386162
168,Le Sud-Ouest,David-Lefebvre,,rue Vinet/rue Quesnel,,,orthophotographies,298740.67,5038485.76,45.4862699828013,-73.5775155295401
169,Le Sud-Ouest,de l'Encan,,boul. Georges-Vanier/rue Notre-Dame Ouest,,,orthophotographies,299122.09,5038330.51,45.4848761802612,-73.5726343253176
170,Le Sud-Ouest,des Cordonniers,,rue Bourget/rue Notre-Dame Ouest,,,orthophotographies,298510.77,5037690.03,45.4791076096942,-73.5804463900214
171,Le Sud-Ouest,Gadbois,,rue des Utilités publiques/chemin de la Côte-Saint-Paul,,,orthophotographies,297337.54,5036387.78,45.4673778042841,-73.5954335341273
172,Le Sud-Ouest,Jacques-Viger,,rue Saint-Philippe/rue Sainte-Philomène,,,orthophotographies,298241.88,5037275.56,45.4753755433897,-73.5838802610298
173,Le Sud-Ouest,Jessie-Maxwell-Smith,,rue Saint-Antoine Ouest/place Richmond,,,orthophotographies,299085.95,5039089.86,45.4917088555216,-73.573105482213
174,Le Sud-Ouest,Polyvalente Saint-Henri,,rue du Couvent/rue Saint-Antoine Ouest,,,orthophotographies,298015.87,5037675.18,45.4789693490225,-73.5867765105778
175,Le Sud-Ouest,Sainte-Cunégonde,,rue Notre-Dame Ouest/rue Charlevoix,,,orthophotographies,298826.61,5038050.03,45.4823498281249,-73.5764108203221
176,Le Sud-Ouest,Vinet,,rue Charlevoix/rue Workman,,,orthophotographies,298840.41,5038126.97,45.4830422871593,-73.5762352264455
177,Le Sud-Ouest,Square Sainte-Élizabeth,,rue du square Sainte-Élizabeth/rue De Courcelle,,,orthophotographies,297537.73,5037223.59,45.4749009247713,-73.5928857645931
178,Le Sud-Ouest,Place Roland-Proulx,,rue du Square-Sir-Georges-Étienne-Cartier/rue Saint-Ambroise,,,orthophotographies,298200.12,5036946.93,45.4724179838495,-73.5844099682367
179,Le Sud-Ouest,Herb-Trawick,,rue Notre-DAme Ouest/rue Saint-Martin,,,orthophotographies,299388.86,5038766.74,45.4888036927982,-73.5692264965382
180,Le Sud-Ouest,Carré d'Hibernia,,rue Grand Trunk/rue Laprairie,,,orthophotographies,299776.76,5037679.41,45.47902230252,-73.5642528439406
181,Le Sud-Ouest,D'Argenson,baseball,rue du Centre/ave Atwater,,,orthophotographies,299163.94,5037395.82,45.4764657502313,-73.5720882355495
182,Le Sud-Ouest,Le Ber,,ave Ash/rue Le Ber,,,orthophotographies,300514.32,5037536.68,45.4777428686637,-73.5548173880031
183,Le Sud-Ouest,Le Ber,,ave Ash/rue Le Ber,,,orthophotographies,300637.65,5037581.14,45.4781436865964,-73.5532402728631
184,Le Sud-Ouest,Atwater / Saint-Charles,,rue Saint-Charles/rue Thomas-Keefer,,,orthophotographies,299058.53,5037507.25,45.4774675902691,-73.5734377874211
185,Le Sud-Ouest,Saint-Gabriel,,rue Charlevoix/rue Grand Trunk,,,orthophotographies,299541.86,5037533.45,45.4777071572516,-73.5672559124382
186,Le Sud-Ouest,Campbell-Ouest ou parc Oscar-Peterson,,rue Quesnel/rue Chatham,,,orthophotographies,299001.59,5038785.97,45.488973622905,-73.57418119232
187,Le Sud-Ouest,Clifford,,boul. de la Vérendrye/rue Raudot,,,orthophotographies,297838.03,5034438.05,45.4498383470737,-73.5890054278174
188,Le Sud-Ouest,des Métallos,,rue Jacques-Hertel/rue Mazzarin,,,orthophotographies,296843.51,5035393.38,45.4584242631163,-73.6017353229602
189,Le Sud-Ouest,Garneau,,boul. Monk/rue du Parc-Garneau,,,orthophotographies,297383.74,5035089.32,45.4556941253771,-73.594823118893
190,Le Sud-Ouest,Springland,,rue Springland/boul. De La Vérendrye,,,orthophotographies,298285.06,5034917.61,45.4541579786506,-73.5832967233019
191,LaSalle,Albert-Perras,,rue Perras/rue Jean-Chevalier,,,orthophotographies,296051.29,5032771.09,45.4348181093229,-73.6118183619702
192,LaSalle,Boivin,,rue de Cabano/rue de Percé,,,orthophotographies,294369.41,5031013.62,45.4189804032321,-73.6332774068654
193,LaSalle,Chevalier-De Lasalle,tennis,80e avenue/rue de Matane,,,orthophotographies,293995.44,5031003.72,45.4188856422998,-73.6380555972055
194,LaSalle,Chevalier-De Lasalle,soccer,,,,localisation approx.,293759.41,5031011.19,45.4189491764593,-73.641071636068
195,LaSalle,Centre sportif Dollard St-Laurent,jeux d'eau,,,,localisation approx.,294740.34,5031299.95,45.4215623865836,-73.6285436881101
196,LaSalle,Christophe-Colomb,jeux,rue David-Boyer/rue Réjane,,,orthophotographies,294845.57,5032265.77,45.4302548521999,-73.6272185684087
197,LaSalle,Dalmany,jeux,rue Dalmany/avenue Stirling,,,orthophotographies,292363.69,5032181.78,45.4294593367135,-73.6589350007125
198,LaSalle,Hayward,jeux,rue Hayward,,,localisation approx.,293147.81,5031448.4,45.4228735048441,-73.6488966975097
199,LaSalle,Hébert,jeux,rue Beyries/66e avenue,,accès par la ruelle?,localisation approx.,294883.01,5031086.94,45.4196476449072,-73.626716348459
200,LaSalle,J.-D.-Ducharme,,rue rancourt/rue Daoust,,,orthophotographies,295055.28,5031972.51,45.4276188979357,-73.6245326578798
201,LaSalle,Leduc,,rue Béique/rue Paquette,,,localisation approx.,294421.61,5032020.41,45.4280408115092,-73.6326316324772
202,LaSalle,Jeannotte,jeux,rue Clément/rue Trudeau,,,orthophotographies,293853.21,5032476.16,45.4321332210644,-73.6399056652547
203,LaSalle,Lacharité,softball,ave Latour/boul LaSalle,,,orthophotographies,295140.7,5030701.39,45.4161818615722,-73.6234161119836
204,LaSalle,Lasalle-Nord,jeux,rue Chouinard/rue Lapierre,,,orthophotographies,295603.69,5033082.97,45.4376188232935,-73.6175450084565
205,LaSalle,Lawrence,jeux,66e ave/rue Beyries,,,orthophotographies,294899.52,5030912.86,45.4180814126424,-73.6265018911661
206,LaSalle,Lefebvre,jeux,rue Cordner/rue Hardy,,,orthophotographies,294262.68,5033103.59,45.4377854480139,-73.634685870491
207,LaSalle,Leroux,soccer,rue Centrale/ave Alepin,,,orthophotographies,297340.53,5032701.78,45.4342093635957,-73.5953393982553
208,LaSalle,Leroux,jeux,rue Centrale/ave Alepin,,,orthophotographies,297246.34,5032737.3,45.434527980104,-73.5965437828214
209,LaSalle,Louis-Marie-Gagnon,jeux,rue des Oblats/rue Airlie,,,orthophotographies,292688.44,5031803.23,45.4260586476609,-73.6547754286876
210,LaSalle,G.-Melatti,jeux,rue Melatti,,,orthophotographies,296284.6,5032523.35,45.4325916952546,-73.6088321180635
211,LaSalle,Mohawk,,rue Dalmany/ave Highlands,,,orthophotographies,292537.14,5032192.91,45.4295625529705,-73.6567186097983
212,LaSalle,Ouellette,baseball,rue Giguère,,,orthophotographies,295242.48,5032626.29,45.4335045364018,-73.6221530305267
213,LaSalle,Ouellette,piscine,rue Robert/rue Charbonneau,,accès restreint,orthophotographies,295323.19,5032569.29,45.4329927192033,-73.621120394966
214,LaSalle,Paul-Séguin,jeux,rue Raymond/30e ave,,,orthophotographies,295938.88,5031631.39,45.4245610706648,-73.6132345770209
215,LaSalle,Raymond,soccer,boul. Bishop-Power/rue Centrale,,,orthophotographies,296801.27,5031975.82,45.427670830128,-73.602219870511
216,LaSalle,Riverside,jeux,35e ave/ave Vachon,,,orthophotographies,295964.66,5031092.18,45.4197092936004,-73.6128954691008
217,LaSalle,Riverside,mini-soccer,35e ave/ave Vachon,,,orthophotographies,295882.97,5031186.57,45.4205576296981,-73.613940987062
218,Outremont,Beaubien,jeux,ave Stuart/ave Saint-Viateur,,,orthophotographies,296382.72,5041768.37,45.5157838258671,-73.6077364834767
219,Outremont,Beaubien,étang,ave Stuart/ave Saint-Viateur,,,orthophotographies,296282.46,5041763.3,45.5157369865025,-73.6090196650693
220,Outremont,parc canin,,ave McEachran/ave du Manoir,,,orthophotographies,295365.47,5042234.2,45.5199625225131,-73.6207656541679
221,Outremont,F.-X.-Garneau,,place Elmwood/ave Outremont,,,orthophotographies,296598.14,5041853.27,45.5165503567389,-73.6049806530182
222,Outremont,John-F. Kennedy,piscine,ave Ducharme/ave Wiseman,,accès restreint,orthophotographies,295715,5042412.3,45.5215697770223,-73.6162948452321
223,Outremont,Joyce,jeux,ave Lajoie/ave Antonine-maillet,,,orthophotographies,295789.34,5041713.79,45.5152852780852,-73.6153303978899
224,Outremont,Joyce,chalet,ave Lajoie/ave Antonine-maillet,,,orthophotographies,295849.54,5041675.17,45.5149385354707,-73.6145591747501
225,Outremont,Joyce,tennis,ave Lajoie/ave Antonine-maillet,,,orthophotographies,295828.78,5041698.01,45.5151437919886,-73.6148253046165
226,Outremont,d'Oakwood,tennis,ave Roskilde/ave Springgrove,,,orthophotographies,296934.68,5041487.19,45.5132601008522,-73.6006672038924
227,Outremont,Pratt,étang,ave Van Horne/ave Dunlop,,,orthophotographies,295454.06,5041656.92,45.5147691263294,-73.6196206633243
228,Outremont,Raoul-Dandurand,,ave Van Horne/boul Dollard,,Parc Stanislas,orthophotographies,295728.64,5042090.95,45.5186783237126,-73.61611429535
229,Outremont,Saint-Viateur,jeux,ave Querbes/ave Bernard,,,orthophotographies,296509.47,5042301.73,45.5205847261625,-73.6061231785313
230,Outremont,Saint-Viateur,tennis #3,ave Querbes/ave Bernard,,accès restreint,orthophotographies,296492.98,5042332.05,45.5208573609582,-73.6063347728387
231,Outremont,Saint-Viateur,tennis #4,ave Querbes/ave Bernard,,accès restreint,orthophotographies,296475.12,5042343.39,45.5209591896189,-73.6065635836433
232,Outremont,CCI,,ave McEachran/ave du Manoir,,Centre Communautaire Intergénérationnel,orthophotographies,295418.66,5042238.63,45.5200031031151,-73.6200848877841
233,Plateau-Mont-Royal,des Açores (ou Hôtel-de-Ville),jeux,ave de l'Hôtel-de-Ville/rue Rachel Est,,,orthophotographies,298592.36,5042162.19,45.5193507480139,-73.579459345197
234,Plateau-Mont-Royal,Albert-Saint-Martin,jeux,rue Berri/rue De Bienville,,,orthophotographies,298296.79,5042867.68,45.5256963277821,-73.5832520737098
235,Plateau-Mont-Royal,Alphonse-Télésphore-Lépine,,ave De Gaspé/ave Fairmount Est,,,orthophotographies,297556.33,5042893.51,45.5259214543915,-73.5927315825684
236,Plateau-Mont-Royal,des Amériques,,boul Saint-Laurent/rue Rachel Est,,,orthophotographies,298407.4,5042041.99,45.5182674694248,-73.5818253093539
237,Plateau-Mont-Royal,Baldwin,,rue Fullum/rue Marie-Anne Est,,,localisation approx.,299636.36,5044081.49,45.5366298617974,-73.5661161238705
238,Plateau-Mont-Royal,Baldwin,,rue Fullum/rue Marie-Anne Est,,,localisation approx.,299513.4,5044132.92,45.5370917259121,-73.5676910787635
239,Plateau-Mont-Royal,De Bullion,,rue De Bullion/rue Prince-Arthur Est,,,orthophotographies,299176.16,5041778.11,45.5158995961116,-73.5719821586527
240,Plateau-Mont-Royal,des Compagnons-de-Saint-Laurent,,ave du Mont-Royal Est/rue Cartier,,,orthophotographies,299088.8,5043765.81,45.5337849827221,-73.5731234880642
241,Plateau-Mont-Royal,Devonshire,,rue Sewell/ave des Pins Ouest,,,orthophotographies,298845.98,5041644.63,45.5146957480695,-73.5762066620594
242,Plateau-Mont-Royal,Drolet / Rachel,,rue Drolet/rue Rachel Est,,,orthophotographies,298550.93,5042425.63,45.5217209147616,-73.579993018156
243,Plateau-Mont-Royal,Gilles-Lefebvre,jeux d'eau,ave Henri-Julien/ave du Mont-Royal Est,,,orthophotographies,298215.56,5042605.74,45.5233385278252,-73.5842884338337
244,Plateau-Mont-Royal,Jean-Jacques-Olier,,rue Drolet/ave Duluth Est,,,orthophotographies,298901.35,5042199.65,45.5196905106462,-73.575504650277
245,Plateau-Mont-Royal,de la Bolduc,,rue Rachel Est/rue Rivard,,,orthophotographies,298753.36,5042497.68,45.5223710340807,-73.5774026461476
246,Plateau-Mont-Royal,Lahaie,,ave Laurier Est/rue saint-Dominique,,,orthophotographies,297618.64,5042600.23,45.5232830529216,-73.5919296087411
247,Plateau-Mont-Royal,Laval,,ave Laval/rue du Square-Saint-Louis,,,orthophotographies,299176.24,5041892.17,45.5169259544878,-73.5719824432553
248,Plateau-Mont-Royal,Lhasa-de-Sela (Clark),,rue Clark/rue Saint-Urbain,,,orthophotographies,296614.15,5043055.9,45.5273722729354,-73.6047958203969
249,Plateau-Mont-Royal,Louis-Reitman,,rue saint-Dominique/rue Roy Est,,,orthophotographies,298867.17,5041789.34,45.5159980875607,-73.5759371986965
250,Plateau-Mont-Royal,du Portugal,,boul Saint-Laurent/rue Marie-Anne Est,,,orthophotographies,298268.08,5042151.33,45.519250062716,-73.5836100612599
260,Plateau-Mont-Royal,Saint-Pierre-Claver,,rue Fullum/rue Gilford,,,orthophotographies,299043.35,5044416.59,45.5396405676612,-73.5737130584536
261,Plateau-Mont-Royal,Thérèse-Daviau (Roy/Rivard),,rue Roy Est/rue Rivard,,,orthophotographies,299166.31,5042247.58,45.5201239951802,-73.572113629292
262,Plateau-Mont-Royal,University Settlement,,rue Clark/rue Milton,,,orthophotographies,299194.68,5041412.88,45.5126132576154,-73.5717409367901
263,Plateau-Mont-Royal,Palomino Brin D'Amour (Villeneuve),,ave Henri-Julien/rue Gilford,,,orthophotographies,298098.68,5042684.6,45.5240470268704,-73.5857857095901
264,Rivière-des-Prairies–Pointe-aux-Trembles,Centre récréatif RDP,tennis,ave Fernand-Gauthier/boul Maurice-Duplessis,,accès restreint,orthophotographies,297413.61,5054079.38,45.6265737945856,-73.5947277283662
265,Rivière-des-Prairies–Pointe-aux-Trembles,École Bosco-Ville,privé,10950 boul Perras,,accès restreint/terrain privé,localisation approx.,301385.43,5058447.59,45.665910706859,-73.5438212615417
266,Rivière-des-Prairies–Pointe-aux-Trembles,Jean-Jacques-Rousseau,jardins communautaires,rue La Galissionnière/rue des Philosophes,,Jardin commun. Les Arpents Verts/accès restreint,orthophotographies,300911.49,5057959.4,45.6615153940499,-73.5498997179818
267,Rivière-des-Prairies–Pointe-aux-Trembles,Jardin commun. Les Deux Sapins,jardins communautaires,89e ave/boul Perras,,accès restreint,orthophotographies,301723.08,5059203.33,45.6727125600457,-73.5394927761062
268,Rivière-des-Prairies–Pointe-aux-Trembles,Albéric-Bourgeois,,ave André-Ampère/25e ave,,,orthophotographies,297802.1,5055260.25,45.637203539682,-73.5897624542843
269,Rivière-des-Prairies–Pointe-aux-Trembles,André-Corbeil-Dit_Tranchemontagne,,boul Gouin Est/26e ave,,,orthophotographies,297225.01,5056013.88,45.6439787969703,-73.5971765318649
270,Rivière-des-Prairies–Pointe-aux-Trembles,Armand-Bombardier,,ave Charles-Renard/ave Octave-Pelletier,,,orthophotographies,297309.95,5055651.44,45.6407184120555,-73.5960812971405
271,Rivière-des-Prairies–Pointe-aux-Trembles,Cécile-Bérubé,,ave Élie-Beauregard/rue Joseph De Montenon,,,orthophotographies,297143.71,5054944.64,45.6343566679258,-73.5982026870833
272,Rivière-des-Prairies–Pointe-aux-Trembles,Claudine-Vallerand,,27e ave/rue Pierre-Magnet,,,orthophotographies,298253.28,5054644.92,45.6316710700366,-73.5839668805398
273,Rivière-des-Prairies–Pointe-aux-Trembles,Conrad-Poirier,,boul Perras/ave Salomon-Marion,,,localisation approx.,297231.15,5055224.3,45.6368740652189,-73.5970854930095
274,Rivière-des-Prairies–Pointe-aux-Trembles,Dollard-Morin,,rue La Valinière/ave René-Descartes,,,orthophotographies,297565.11,5054219.44,45.6278356800796,-73.5927868785874
275,Rivière-des-Prairies–Pointe-aux-Trembles,Dollard-Morin,,boul Maurice-Duplessis/15e ave,,,orthophotographies,297506.39,5054233.17,45.6279586115232,-73.5935401623173
276,Rivière-des-Prairies–Pointe-aux-Trembles,Dollard-Morin,,rue La Valinière/ave René-Descartes,,,localisation approx.,297554.91,5054207.24,45.6277257954617,-73.5929175112119
277,Rivière-des-Prairies–Pointe-aux-Trembles,Dollard-Morin,,rue La Valinière/ave René-Descartes,,,localisation approx.,297563.49,5054164.45,45.6273408510092,-73.5928068383731
278,Rivière-des-Prairies–Pointe-aux-Trembles,Alexis-Carrel (Don Bosco),,boul Perras/ave Alfred-Nobel,,,orthophotographies,297888.96,5056066.52,45.6444593895548,-73.5886597395037
279,Rivière-des-Prairies–Pointe-aux-Trembles,du Moulin-du-Rapide,,rue de Clichy/58e ave,,,orthophotographies,299185.11,5057811.58,45.6601734597883,-73.5720519518042
280,Rivière-des-Prairies–Pointe-aux-Trembles,Edmondo-Chiodini,,4e rue/60e ave,,,orthophotographies,299711.48,5057336.56,45.6559032049528,-73.5652924509159
281,Rivière-des-Prairies–Pointe-aux-Trembles,Ernest-Rouleau,,boul Gouin Est/ave Ozias-Leduc,,,orthophotographies,295743.68,5054620.9,45.631426741294,-73.6161539886417
282,Rivière-des-Prairies–Pointe-aux-Trembles,Ferdinand-Biondi,,ave Auguste-Picard/ave Éli-Beauregard,,,orthophotographies,297376.08,5054454.98,45.6299531257986,-73.595214758102
283,Rivière-des-Prairies–Pointe-aux-Trembles,Gérard-Picard,,boul Rodolphe-Forget/ave Louis-Dessaules,,,orthophotographies,298898.67,5056333.32,45.6468694265539,-73.5757097072896
284,Rivière-des-Prairies–Pointe-aux-Trembles,Gerry-Roufs,,boul Gouin Est/ave Pierre-Baillargeon,,,orthophotographies,298030.1,5056778.13,45.6508639831311,-73.5868589931791
285,Rivière-des-Prairies–Pointe-aux-Trembles,Marie-Cardinal,,rue Jacques-Rousseau (tourne-bride),,,orthophotographies,296564.81,5055062.02,45.6354062534361,-73.6056298657726
286,Rivière-des-Prairies–Pointe-aux-Trembles,Pasquale-Gatusso,,Place Gilles-Trottier,,,orthophotographies,298879.52,5055142.91,45.6361577123321,-73.5759409148921
287,Rivière-des-Prairies–Pointe-aux-Trembles,Renée-Vautelet,,ave Pierre-Baillargeon/rue Albert-Chamberland,,,orthophotographies,298186.32,5056707.07,45.6502260782468,-73.5848537001502
288,Rivière-des-Prairies–Pointe-aux-Trembles,Pierre-Blanchet,,ave Philippe-Panneton/ave André-Ampère,,,orthophotographies,296721.12,5054187.95,45.6275430221672,-73.6036104430682
289,Rivière-des-Prairies–Pointe-aux-Trembles,Pierre-Dagenais-dis-Lépine,,boul Gouin Est/48e ave,,,orthophotographies,298473.28,5057234.47,45.6549743960093,-73.5811788549883
290,Rivière-des-Prairies–Pointe-aux-Trembles,Pierre-Perrault,,boul Gouin Est/ave Rita-Levi-Montalcini,,,orthophotographies,297540.47,5056353.15,45.647034984532,-73.5931346852597
291,Rivière-des-Prairies–Pointe-aux-Trembles,Saint-Valérien,,boul Perras/87e ave,,,orthophotographies,301518.04,5058951.61,45.670446602873,-73.5421227985137
292,Rivière-des-Prairies–Pointe-aux-Trembles,Saint-Marthe,,rue Jacques-Rousseau/ave Jean-Jalbot,,,localisation approx.,297029.93,5055435.06,45.6387683040063,-73.5996698963546
293,Rivière-des-Prairies–Pointe-aux-Trembles,Samuel-Morse,,ave André-Dumas/ave André-Ampère,,,orthophotographies,298158.31,5055423.63,45.6386771653639,-73.5851955617989
294,Rivière-des-Prairies–Pointe-aux-Trembles,Marie-Coron (Urgel-Charbonneau),,rue René-Lévesque/36e ave,,,orthophotographies,304810.48,5057751.05,45.6596515204152,-73.4998655187484
295,Rivière-des-Prairies–Pointe-aux-Trembles,Gérard-Vaillancourt,,rue Ontario Est/47e ave,,,orthophotographies,304673.22,5058592.02,45.6672187053992,-73.5016270830346
296,Rivière-des-Prairies–Pointe-aux-Trembles,Rodrigue-Gilbert Sud,,rue Joseph-Dargent/rue Joseph-Janot,,,localisation approx.,304888.1,5056874.37,45.6517629828106,-73.4988696436189
297,Rivière-des-Prairies–Pointe-aux-Trembles,Pierre-Lacroix (Jardins commun.),jardins communautaires,rue Parent/18e ave,,accès restreint,orthophotographies,305158.75,5056263.7,45.6462679653216,-73.4953975516274
298,Rivière-des-Prairies–Pointe-aux-Trembles,Richelieu (Jardins commun.),jardins communautaires,rue Forsyth/40e ave,,accès restreint,orthophotographies,304451.6,5058194.18,45.6636387962139,-73.5044710490445
299,Rivière-des-Prairies–Pointe-aux-Trembles,Maria-Goreti (Jardins commun.),jardins communautaires,Ter. Sainte-Maria-Goreti/94e ave,,accès restreint,orthophotographies,306171.31,5062008.15,45.6979561971675,-73.4823910915763
300,Rivière-des-Prairies–Pointe-aux-Trembles,Parc-école Notre-Dame,,rue Notre-Dame Est/57e ave,,,orthophotographies,305287.02,5059240.66,45.6730551163016,-73.4937489797824
301,Rivière-des-Prairies–Pointe-aux-Trembles,Beausoleil,,rue Beausoleil/rue Beaudoin,,,orthophotographies,305381.7,5060631.4,45.6855691322943,-73.4925320743857
302,Rivière-des-Prairies–Pointe-aux-Trembles,des Bouleaux,,rue des Bouleaux/rue Reeves,,,orthophotographies,304732.16,5056402.67,45.6475185349384,-73.5008703471647
303,Rivière-des-Prairies–Pointe-aux-Trembles,de la Rivière,,rue Pierre-Mercure/rue Napoléon-Brisebois,,,orthophotographies,305475.33,5062143.69,45.6991768303512,-73.4913279397997
304,Rivière-des-Prairies–Pointe-aux-Trembles,du Bout-de-L'île,,rue Bureau (tourne-bride),,,localisation approx.,306495.87,5062481.84,45.7022177972606,-73.4782217819081
305,Rivière-des-Prairies–Pointe-aux-Trembles,Clémentine-De la Rousselière,,rue Notre-Dame Est/boul De La Rousselière,,,orthophotographies,305267.71,5058703.18,45.6682187958388,-73.4939973453372
306,Rivière-des-Prairies–Pointe-aux-Trembles,du Colombier,,rue du Colombier,,,orthophotographies,305255.6,5056568.26,45.6490084007415,-73.4941547659083
307,Rivière-des-Prairies–Pointe-aux-Trembles,Daniel-Johnson,,boul du Tricentenaire/rue Joseph-Dargent,,,orthophotographies,304810.48,5056697.17,45.650168507952,-73.4998655414444
308,Rivière-des-Prairies–Pointe-aux-Trembles,des Épinettes,,rue des Épinettes/rue des Bois-Francs,,,orthophotographies,304223.09,5056575.66,45.6490748971834,-73.5074016198203
309,Rivière-des-Prairies–Pointe-aux-Trembles,François-La Bernarde,,place François-La Bernarde/rue Antoine-Chaudillon,,,orthophotographies,305571.23,5061326.17,45.6918205825659,-73.4900977653473
310,Rivière-des-Prairies–Pointe-aux-Trembles,François-Vaillancourt,,rue René-Lévesque/31e ave,,,localisation approx.,304740.65,5057334.61,45.6559043136076,-73.5007615391156
311,Rivière-des-Prairies–Pointe-aux-Trembles,de Montmartre,,rue De Montigny/60e ave,,,orthophotographies,304999.39,5059548.03,45.675821022807,-73.4974406547523
312,Rivière-des-Prairies–Pointe-aux-Trembles,Richelieu,,rue Forsyth/40e ave,,,orthophotographies,304414.25,5058182.5,45.663533677752,-73.5049503557438
313,Rivière-des-Prairies–Pointe-aux-Trembles,Rosaire-Prieur (Prince-Albert),,rue Prince-Albert/8e ave,,,orthophotographies,305397.83,5055439.65,45.6388528260918,-73.4923313762801
314,Rivière-des-Prairies–Pointe-aux-Trembles,Saint-Georges,,place Saint-Georges,,,orthophotographies,305404.06,5057166.65,45.6543927173063,-73.4922493185835
315,Rivière-des-Prairies–Pointe-aux-Trembles,Saint-Jean-Baptiste,,boul Saint-Jean-Baptiste/rue René-Lévesque,,,orthophotographies,304761.14,5055686.57,45.641074921293,-73.5004984937151
316,Rivière-des-Prairies–Pointe-aux-Trembles,Saint-Joseph,,boul Gouin Est/68e ave,,,orthophotographies,300044.95,5057888.52,45.6608722053241,-73.5610189860566
317,Rivière-des-Prairies–Pointe-aux-Trembles,Saint-Joseph,,boul Gouin Est/68e ave,,,orthophotographies,299910.65,5058024.55,45.6620952934889,-73.5627437515313
318,Rivière-des-Prairies–Pointe-aux-Trembles,Saint-Joseph,,boul Gouin Est/68e ave,,,orthophotographies,299907.84,5058053.38,45.6623546910068,-73.562780101447
319,Rivière-des-Prairies–Pointe-aux-Trembles,Maria-Goretti,,rue Notre-Dame Est/85e ave,,,orthophotographies,305761.51,5061305.65,45.6916357030358,-73.4876546992836
320,Rivière-des-Prairies–Pointe-aux-Trembles,Yves-Thériault / Sherbrooke,,ave Yves-Thériault/rue Thérèse-Giroux,,,orthophotographies,304515.32,5059963,45.6795549569747,-73.503654360129
321,Rivière-des-Prairies–Pointe-aux-Trembles,Polyvalente Pointe-aux-Trembles,,rue Sherbrooke Est/rue Damien-Gauthier,,,localisation approx.,305184.31,5060501.17,45.684397441752,-73.4950662909077
322,Rivière-des-Prairies–Pointe-aux-Trembles,Polyvalente Pointe-aux-Trembles,,rue Sherbrooke Est/rue Damien-Gauthier,,,localisation approx.,305197.73,5060500.7,45.6843932050549,-73.4948940075222
323,Rivière-des-Prairies–Pointe-aux-Trembles,Polyvalente Pointe-aux-Trembles,,rue Sherbrooke Est/rue Damien-Gauthier,,,localisation approx.,305185.73,5060490.11,45.6842979214975,-73.4950480699597
324,Rivière-des-Prairies–Pointe-aux-Trembles,Polyvalente Pointe-aux-Trembles,,rue Sherbrooke Est/rue Damien-Gauthier,,,localisation approx.,305198.67,5060491.29,45.6843085319857,-73.4948819476775
325,Rivière-des-Prairies–Pointe-aux-Trembles,Victoria-Girard,,rue Forsyth/rue Jean-Leduc,,,localisation approx.,304233.62,5057189.24,45.6545960182082,-73.5072672364081
326,Rivière-des-Prairies–Pointe-aux-Trembles,Place du Village,,rue Notre-Dame Est/boul Saint-Jean-Baptiste,,,localisation approx.,305645.88,5055542.62,45.6397791143472,-73.4891493529637
327,Rivière-des-Prairies–Pointe-aux-Trembles,Rampe de mise à l'eau,,rue Notre-Dame Est/36e ave,,,orthophotographies,305552.02,5057685.59,45.6590620918888,-73.4903500448747
328,Rivière-des-Prairies–Pointe-aux-Trembles,Francesco-Lacurto,,rue Maude-Abbott/rue Charlotte-Tassé,,,orthophotographies,297291.98,5053906.55,45.6250173275932,-73.5962849236484
329,Rivière-des-Prairies–Pointe-aux-Trembles,Perh-Kalm,,ave Rolland-Germain/rue Marcel-Raymond,,,orthophotographies,300776.16,5058196.67,45.6636496191226,-73.5516383166077
330,Rivière-des-Prairies–Pointe-aux-Trembles,René-Masson,,boul Rodolphe-Forget/boul Perras,,,orthophotographies,298660.35,5056906.72,45.6520269216699,-73.5787744063546
331,Rivière-des-Prairies–Pointe-aux-Trembles,des Pins,,42e ave/rue Cherrier,,,orthophotographies,303503.27,5058519.67,45.6665664872244,-73.5166419220824
332,Rivière-des-Prairies–Pointe-aux-Trembles,Marie-Claire-Daveluy,,ave Jean-Yves-Bigras/ave Louis-Dessaules,,,orthophotographies,299446.45,5056654.1,45.6497603082497,-73.568685627373
333,Rosemont–La Petite-Patrie,Beaubien,,rue Beaubien Est/6e ave,,,localisation approx.,297758.91,5045994.13,45.5538240277343,-73.5901828013251
334,Rosemont–La Petite-Patrie,Beaubien,,rue Beaubien Est/6e ave,,,localisation approx.,297774.55,5045990.22,45.5537890021944,-73.5899824271494
335,Rosemont–La Petite-Patrie,Bélanger/Chateaubriand,,reu Bélanger/ave De Chateaubriand,,,orthophotographies,296178.21,5044268.7,45.5382802355238,-73.6103980942254
336,Rosemont–La Petite-Patrie,Carmela-Galardo-Frascarelli,,rue Drolet/rue Bélanger,,,orthophotographies,296030.3,5044053.19,45.5363391532123,-73.6122881509997
337,Rosemont–La Petite-Patrie,des Carrières,,rue des Carrières/rue Boyer,,,orthophotographies,297510.28,5043746.14,45.5335932596698,-73.5933337903976
338,Rosemont–La Petite-Patrie,de la Cité-Jardin,,boul Rosemont/ave des Épinettes,,,localisation approx.,299971.7,5047937.37,45.571328802495,-73.5618604308963
339,Rosemont–La Petite-Patrie,Dante,,rue Dante/ave De Gaspé,,,orthophotographies,296064.58,5043832.45,45.534353285395,-73.6118452895708
340,Rosemont–La Petite-Patrie,De Gaspé,,ave De Gaspé/rue Saint-Zotique Est,,,orthophotographies,296268.16,5043694.32,45.5331128635227,-73.6092363202975
341,Rosemont–La Petite-Patrie,Étienne-Desmarteau,,rue Beaubien Est/20e ave,,,orthophotographies,298533.93,5046741.81,45.5605593085642,-73.5802658762942
342,Rosemont–La Petite-Patrie,Étienne-Desmarteau,,rue Beaubien Est/20e ave,,,orthophotographies,298574.73,5046727.85,45.5604340578906,-73.579743067258
343,Rosemont–La Petite-Patrie,Étienne-Desmarteau,,rue Beaubien Est/20e ave,,,localisation approx.,298536.78,5046645.61,45.5596936947573,-73.580228136977
344,Rosemont–La Petite-Patrie,Étienne-Desmarteau,,rue Beaubien Est/20e ave,,,localisation approx.,298585.63,5046628,45.5595356718738,-73.5796021742768
345,Rosemont–La Petite-Patrie,Étienne-Desmarteau,,rue Beaubien Est/20e ave,,,localisation approx.,298518.73,5046611.28,45.5593846194073,-73.580458905653
346,Rosemont–La Petite-Patrie,Étienne-Desmarteau,,rue Beaubien Est/20e ave,,,localisation approx.,298569.78,5046587.96,45.5591752369886,-73.5798046925694
347,Rosemont–La Petite-Patrie,Guglielmo-Marconi (Jean-Talon/Saint-Laurent),,boul Saint-Laurent/rue Jean-Talon Est,,,orthophotographies,295607.38,5043882.07,45.5347939026664,-73.6177000391677
348,Rosemont–La Petite-Patrie,Guido-Nincheri,,rue Sherbrooke Est/boul Pie-IX,,,localisation approx.,300503.29,5046033.34,45.5541991942266,-73.5550329452936
349,Rosemont–La Petite-Patrie,Place Hector-Prud'homme,,rue Saint-Hubert/rue de Bellechasse,,,orthophotographies,297015.6,5043883.2,45.534821225472,-73.5996695855457
350,Rosemont–La Petite-Patrie,Henri-Valade,,place Henri-Valade/boul Saint-Joseph Est,,,orthophotographies,299482.87,5045404.34,45.5485321897072,-73.5680958032691
351,Rosemont–La Petite-Patrie,Idola-Saint-Jean,,boul Rosemont/18e ave,,,orthophotographies,298778.19,5046429.53,45.5577514646343,-73.5771331604391
352,Rosemont–La Petite-Patrie,J.-Arthur-Champagne,,ave du Mont-Royal Est/rue Henri-Deslongchamps,,,orthophotographies,300015.36,5045769.94,45.5518258482451,-73.5612798510165
353,Rosemont–La Petite-Patrie,Jean-Duceppe,,rue William-Tremblay/rue André-Laurendeau,,,orthophotographies,299753.65,5044798.52,45.5430828197083,-73.5646217144162
354,Rosemont–La Petite-Patrie,Jean-Duceppe,,rue William-Tremblay/rue André-Laurendeau,,,localisation approx.,299606.4,5044884.68,45.5438570361742,-73.5665082570232
355,Rosemont–La Petite-Patrie,Jean-Et-Èva-Tremblay,,place Guillet/18e ave,,,localisation approx.,300206.19,5045742.33,45.5515786887867,-73.5588355149888
356,Rosemont–La Petite-Patrie,Joseph-N.-Drapeau,,place Joseph-N.-Drapeau/rue William-Tremblay,,,orthophotographies,300069.84,5045404.45,45.5485374132424,-73.5605785591755
357,Rosemont–La Petite-Patrie,Joseph-Paré,,rue Beaubien Est/43e ave,,,orthophotographies,299347.87,5048317.37,45.5747435537359,-73.5698572068049
358,Rosemont–La Petite-Patrie,Lafond,,boul Saint-Joseph Est/13e ave,,,orthophotographies,299490.95,5045732.07,45.551481280461,-73.5679958795843
359,Rosemont–La Petite-Patrie,Lafond,,boul Saint-Joseph Est/13e ave,,,localisation approx.,299421.71,5045820.54,45.5522768328883,-73.5688836456202
360,Rosemont–La Petite-Patrie,Lafond,,boul Saint-Joseph Est/13e ave,,,localisation approx.,299443.88,5045816.85,45.5522437998584,-73.5685996582237
361,Rosemont–La Petite-Patrie,Lafond,,boul Saint-Joseph Est/13e ave,,,localisation approx.,299453,5045812.66,45.5522061668725,-73.5684828061569
362,Rosemont–La Petite-Patrie,Maisonneuve (gorf municipal),,rue Sherbrooke Est/boul de L'Assomption,,,orthophotographies,300370.15,5048029.43,45.5721598378904,-73.5567563057623
363,Rosemont–La Petite-Patrie,Maisonneuve (gorf municipal),,rue Sherbrooke Est/boul de L'Assomption,,,localisation approx.,300364.05,5047696.08,45.5691602094482,-73.556831435158
364,Rosemont–La Petite-Patrie,Léon-Provancher,,boul Pix-IX/rue Dandurand,,,localisation approx.,299364.14,5046720.46,45.5603741713975,-73.5696309860435
365,Rosemont–La Petite-Patrie,des Locomotives,,rue Omer-Lavallée/ave du Midway,,,orthophotographies,299966.06,5045090.2,45.5457089675548,-73.5619045517758
366,Rosemont–La Petite-Patrie,de la Louisiane,,rue de Bellechasse/35e ave,,,localisation approx.,299266.31,5047660.12,45.5688287676533,-73.5708947790953
367,Rosemont–La Petite-Patrie,de la Louisiane,,rue de Bellechasse/35e ave,,,localisation approx.,299057.59,5047603.19,45.5683148025702,-73.5735681210432
368,Rosemont–La Petite-Patrie,de la Louisiane,,rue de Bellechasse/35e ave,,,localisation approx.,299140.6,5047622.97,45.5684934692544,-73.5725048793367
369,Rosemont–La Petite-Patrie,de la Louisiane,,rue de Bellechasse/35e ave,,,localisation approx.,299151.93,5047621.04,45.5684761945326,-73.5723597039084
370,Rosemont–La Petite-Patrie,Luc-Durand,,ave De Chateaubriand/rue des Ateliers,,,orthophotographies,297273.76,5043567.31,45.5319815667106,-73.5963593173862
371,Rosemont–La Petite-Patrie,Maisonneuve,,rue Sherbrooke Est/rue Viau,,,orthophotographies,299732.23,5047587.14,45.5681756186515,-73.5649249001007
372,Rosemont–La Petite-Patrie,Maisonneuve,,rue Sherbrooke Est/rue Viau,,,orthophotographies,300288.25,5046937.45,45.5623333217971,-73.5577955502424
373,Rosemont–La Petite-Patrie,Maisonneuve,,rue Sherbrooke Est/rue Viau,,,orthophotographies,300465.69,5046858.59,45.5616248406435,-73.5555218446949
374,Rosemont–La Petite-Patrie,Molson,,rue d'Iberville/ave Elsdale,,,localisation approx.,297609.7,5045538.08,45.5497188093937,-73.5920871896442
375,Rosemont–La Petite-Patrie,Montcalm,,rue Cartier/rue Saint-Zotique Est,,,orthophotographies,296861.59,5045148.53,45.5462053787496,-73.6016620067772
376,Rosemont–La Petite-Patrie,Mozart,,ave Mozart Ouest/rue Waverly,,,orthophotographies,295663.52,5043502.97,45.5313833612507,-73.616974165899
377,Rosemont–La Petite-Patrie,du Pélican,,rue Laurier Est/1ere ave,,,orthophotographies,298982.19,5044918.37,45.5441552572935,-73.5745021659334
378,Rosemont–La Petite-Patrie,du Pélican,,rue Molson/boul Saint-Joseph,,,orthophotographies,299127.94,5044785.18,45.5429579678978,-73.5726341673704
379,Rosemont–La Petite-Patrie,Père-Marquette (sud),parc à chien,rue Garnier/boul Rosemont,,parc à chien / accès restreint,orthophotographies,297726.01,5044270.43,45.5383132368199,-73.5905792728304
380,Rosemont–La Petite-Patrie,Père-Marquette (centre),,boul Rosemont/rue Chambord,,,orthophotographies,297585.1,5044499.45,45.5403725965631,-73.5923869348099
381,Rosemont–La Petite-Patrie,Père-Marquette (centre),,boul Rosemont/rue Chambord,,,orthophotographies,297392.54,5044348.53,45.5390125433111,-73.5948503826016
382,Rosemont–La Petite-Patrie,Père-Marquette (centre),,boul Rosemont/rue Chambord,,,localisation approx.,297469.85,5044336.97,45.5389093399205,-73.5938602786908
383,Rosemont–La Petite-Patrie,Père-Marquette (centre),,boul Rosemont/rue Chambord,,,localisation approx.,297480.98,5044336.97,45.5389094569297,-73.5937177627133
384,Rosemont–La Petite-Patrie,Père-Marquette (nord),,rue De Drucourt/rue De Lanaudière,,,orthophotographies,297268.14,5044433.6,45.5397767000744,-73.5964445950522
385,Rosemont–La Petite-Patrie,de la Petite-Italie,,rue Clark/rue Saint-Zotique Ouest,,,localisation approx.,296054.76,5043503.75,45.5313953993685,-73.6119651519854
386,Rosemont–La Petite-Patrie,Richard-Angus,,rue Ernest-Gendreau/ave du Mont-Royal Est,,,orthophotographies,299838.55,5045537.94,45.5497369940234,-73.5635420125141
387,Rosemont–La Petite-Patrie,Rosemont,,rue Dandurand/place Basile-Patenaude,,,orthophotographies,298525.96,5045097.71,45.5457650625458,-73.580346884987
388,Rosemont–La Petite-Patrie,Saint-Édouard,,rue Boyer/rue Saint-Zotique Est,,,orthophotographies,296453.83,5044320.89,45.5387532160116,-73.6068698015766
389,Rosemont–La Petite-Patrie,Saint-Émile,,rue Rachel Est/rue Saint-Germain,,,orthophotographies,300217.04,5045076.75,45.5455896361678,-73.5586903197493
390,Rosemont–La Petite-Patrie,Saint-Émile,,rue Rachel Est/rue Saint-Germain,,,orthophotographies,300174.69,5045100.84,45.5458061266843,-73.5592328898457
391,Rosemont–La Petite-Patrie,Soeur-Madeleine-Gagnon (Saint-Jean-De-La-Croix),,rue Saint-Dominique/rue Saint-Zotique Est,,,orthophotographies,296161.42,5043527.62,45.5316115207102,-73.6106000094739
392,Rosemont–La Petite-Patrie,Raymond-Lévesque (Saint-Zotique/23e avenue),,rue Saint-Zotique Est/23e ave,,,orthophotographies,298235.64,5047195.31,45.5646373009131,-73.5840929368249
393,Rosemont–La Petite-Patrie,Sainte-Bernadette,,rue Bélanger/19e ave,,,orthophotographies,297943.84,5046922.54,45.5621800151336,-73.5878272208381
394,Rosemont–La Petite-Patrie,Sainte-Bernadette,,rue Bélanger/19e ave,,,localisation approx.,297935.86,5046842.85,45.5614628598458,-73.5879283257351
395,Rosemont–La Petite-Patrie,de l'Ukraine,pataugeoire,rue de Bellechasse/12e ave,,accès restreint,orthophotographies,298368.77,5046142.78,45.5551675303225,-73.5823736320395
396,Rosemont–La Petite-Patrie,de l'Ukraine,,rue de Bellechasse/12e ave,,,localisation approx.,298379.8,5046136.66,45.5551125622756,-73.5822322754457
397,Villeray–Saint-Michel–Parc-Extension,Le Goupillier (jardin),jardins communautaires,54e rue (#4161),,accès restreint,orthophotographies,294954.18,5049278.84,45.5833468415968,-73.6261720719409
398,Villeray–Saint-Michel–Parc-Extension,Champdoré (jardin),jardins communautaires,ave Charton (#9400),,accès restreint,orthophotographies,293735.89,5047243.9,45.5650175512588,-73.6417380813116
399,Villeray–Saint-Michel–Parc-Extension,De Lille (jardin),jardins communautaires,ave Bruchesi (#9400),,accès restreint,orthophotographies,294055.13,5047840.38,45.5703898594061,-73.6376615418056
400,Villeray–Saint-Michel–Parc-Extension,Le Michelois (jardin),jardins communautaires,,,accès restreint,orthophotographies,295490.68,5047613.62,45.5683700863962,-73.6192652314997
401,Villeray–Saint-Michel–Parc-Extension,Villeray(jardin),jardins communautaires,ave Christophe-Colomb (#8000),,accès restreint,orthophotographies,295200.52,5045254.11,45.5471345119634,-73.6229362658929
402,Villeray–Saint-Michel–Parc-Extension,De Normandville,jardins communautaires,rue De Normandville (#7955),,accès restreint,orthophotographies,295409.09,5045398.06,45.5484326662418,-73.6202679710556
403,Villeray–Saint-Michel–Parc-Extension,Babylone,jardins communautaires,ave Ball (#435),,accès restreint,orthophotographies,294457.89,5043618.84,45.5324091524558,-73.6324122295634
404,Villeray–Saint-Michel–Parc-Extension,Jean-Rivard,,rue Jean-Rivard/2e ave,,,localisation approx.,295660.3,5047070.11,45.5634816619204,-73.6170820096994
405,Villeray–Saint-Michel–Parc-Extension,George-Vernot,,13e ave/boul Robert,,,localisation approx.,295751.08,5047727.33,45.5693967181725,-73.6159312601328
406,Villeray–Saint-Michel–Parc-Extension,George-Vernot,,13e ave/boul Robert,,,localisation approx.,295876.98,5047571.86,45.5679993766769,-73.6143154435032
407,Villeray–Saint-Michel–Parc-Extension,George-Vernot,,13e ave/boul Robert,,,localisation approx.,295767.76,5047617.47,45.5684083807586,-73.615715533006
408,Villeray–Saint-Michel–Parc-Extension,Parc-école-Montcalm,,boul Saint-Michel/rue Denis-Papin,,,localisation approx.,295267.33,5047778.53,45.5698509737071,-73.622129862506
409,Villeray–Saint-Michel–Parc-Extension,Sainte-Lucie,,rue Legendre Est/16e ave,,,orthophotographies,295053.79,5048347.05,45.5749637291213,-73.6248770067764
410,Villeray–Saint-Michel–Parc-Extension,Sainte-Lucie,,rue Legendre Est/16e ave,,,localisation approx.,294975.09,5048369.28,45.5751626544705,-73.6258858248203
411,Villeray–Saint-Michel–Parc-Extension,Champdoré,,rue Champdoré/rue de Lille,,,localisation approx.,294270.82,5047639.24,45.5685832379118,-73.634893831609
412,Villeray–Saint-Michel–Parc-Extension,Champdoré,,rue Champdoré/rue de Lille,,,localisation approx.,294293.79,5047638.89,45.5685804356186,-73.6345995464046
413,Villeray–Saint-Michel–Parc-Extension,Ovila-Légaré,,boul Pie-IX/48e rue,,,orthophotographies,295207.08,5049023.73,45.5810548227385,-73.6229262105659
414,Villeray–Saint-Michel–Parc-Extension,Ovila-Légaré,,boul Pie-IX/48e rue,,,orthophotographies,295288.29,5048985.5,45.5807119332884,-73.6218848222252
415,Villeray–Saint-Michel–Parc-Extension,Ovila-Légaré,,boul Pie-IX/48e rue,,,localisation approx.,295150.63,5049053.53,45.5813221909809,-73.6236501626927
416,Villeray–Saint-Michel–Parc-Extension,René-Goupil,,25e ave/boul Robert,,,orthophotographies,296189.27,5048614.51,45.5773853911971,-73.610332981208
417,Villeray–Saint-Michel–Parc-Extension,François-Perrault,,rue François-Perrault/ave Musset,,,localisation approx.,296941.41,5046942.05,45.5623449781838,-73.6006686163738
418,Villeray–Saint-Michel–Parc-Extension,Joseph-Robin,,ave Léonard-De Vinci/rue Everett,,,orthophotographies,297272.08,5047178.88,45.5644797050394,-73.5964363825624
419,Villeray–Saint-Michel–Parc-Extension,du Bon-Air,,rue Everett/8e ave,,,orthophotographies,296858.74,5046403.4,45.5574970917145,-73.6017188719594
420,Villeray–Saint-Michel–Parc-Extension,Gabriel-Sagard,,rue jean-Talon Est/rue Sagard,,,orthophotographies,296715.46,5045732.23,45.5514560308643,-73.6035430378666
421,Villeray–Saint-Michel–Parc-Extension,Nicolas-Tillemont,,rue Tillemont/rue Louis-Hémon,,,orthophotographies,295994.05,5046207.52,45.555724100145,-73.6127910601221
422,Villeray–Saint-Michel–Parc-Extension,CESM (Frédéric-Back),,ave Papineau/ave Émile-Journault,,,localisation approx.,295274.05,5046711.64,45.5602508569406,-73.6220229819343
423,Villeray–Saint-Michel–Parc-Extension,CESM (Frédéric-Back),,ave Papineau/ave Émile-Journault,,,localisation approx.,295324.09,5046750.55,45.5606016644257,-73.6213827482094
424,Villeray–Saint-Michel–Parc-Extension,CESM (Frédéric-Back),,ave Papineau/ave Émile-Journault,,,localisation approx.,295377.83,5046726.46,45.5603856242921,-73.6206938969862
425,Villeray–Saint-Michel–Parc-Extension,Giovannina-Di Tomasso,,rue De Normanville/rue Tillemont,,,orthophotographies,295433.19,5045369.37,45.548174828427,-73.6199587775245
426,Villeray–Saint-Michel–Parc-Extension,Villeray,,rue De Normanville/rue Tillemont,,,orthophotographies,295380.71,5045354.74,45.5480424749747,-73.6206305948256
427,Villeray–Saint-Michel–Parc-Extension,De Normanville,,rue De Normanville/rue Everett,,,orthophotographies,295766.25,5045130.26,45.5460276343456,-73.6156889429854
428,Villeray–Saint-Michel–Parc-Extension,De Normanville,,rue De Normanville/rue Everett,,,localisation approx.,295736.52,5045112.19,45.5458646480594,-73.616069338972
429,Villeray–Saint-Michel–Parc-Extension,De Normanville,,rue De Normanville/rue Everett,,,localisation approx.,295741.04,5045108.34,45.5458300632341,-73.6160113835079
430,Villeray–Saint-Michel–Parc-Extension,de Turin,,rue De Castelnaud Est/rue De Lanaudière,,,orthophotographies,296121.21,5045122.24,45.5459599807608,-73.6111430841229
431,Villeray–Saint-Michel–Parc-Extension,Le Prévost,,ave Christophe-Colomb/rue Jean-Talon Est,,,orthophotographies,295993.95,5044798.06,45.543041299318,-73.6127669768494
432,Villeray–Saint-Michel–Parc-Extension,Victorien-Pesant,,ave De Gaspé/rue De Castelnaud Est,,,orthophotographies,295493.55,5044192.88,45.5375891714437,-73.6191633942114
433,Villeray–Saint-Michel–Parc-Extension,Victorien-Pesant,,ave De Gaspé/rue De Castelnaud Est,,,localisation approx.,295496.12,5044203.71,45.5376866579621,-73.61913069279
434,Villeray–Saint-Michel–Parc-Extension,Villeray-Ouest,,ave Christophe-Colomb/rue Villeray,,,localisation approx.,295328.88,5045140.97,45.5461181968853,-73.621290230788
435,Villeray–Saint-Michel–Parc-Extension,Jean-Marie_Lamonde,,ave De Chateaubriand/rue Villeray,,,orthophotographies,295331.96,5044809.15,45.5431324081572,-73.621244368806
436,Villeray–Saint-Michel–Parc-Extension,Saint-Vincent-Ferrier,,ave Henri-Julien/rue Jarry Est,,,orthophotographies,294541.19,5044665.19,45.5418258100068,-73.6313676467919
437,Villeray–Saint-Michel–Parc-Extension,des Rêves,,ave De Gaspé/rue Guizot Est,,,orthophotographies,294401.01,5044646.59,45.5416563624121,-73.6331623007166
438,Villeray–Saint-Michel–Parc-Extension,Howard,,ave De L'Épée/rue de Liège Ouest,,,orthophotographies,293658.98,5043750.33,45.5335800318668,-73.6426438041746
439,Villeray–Saint-Michel–Parc-Extension,Jarry,,rue Jarry Ouest/ave de l'Esplanade,,,orthophotographies,294364.32,5043794.61,45.5339893989269,-73.6336139681262
440,Villeray–Saint-Michel–Parc-Extension,Jarry,,rue Jarry Ouest/ave de l'Esplanade,,,orthophotographies,294591.15,5043696.76,45.533112269574,-73.6307077021704
441,Villeray–Saint-Michel–Parc-Extension,Jarry,,rue Jarry Ouest/boul Saint-Laurent,,,orthophotographies,294625.9,5044211.32,45.5377429717083,-73.6302734766887
442,Villeray–Saint-Michel–Parc-Extension,Jarry,,boul Saint-Laurent/rue Villeray,,,orthophotographies,294851.58,5044076.16,45.5365300130657,-73.627381035806
443,Villeray–Saint-Michel–Parc-Extension,Jarry,,rue Jarry Ouest/boul Saint-Laurent,,,localisation approx.,294464.15,5043875.73,45.5347208334976,-73.6323375031515
444,Villeray–Saint-Michel–Parc-Extension,Jarry,,rue Jarry Ouest/boul Saint-Laurent,,,localisation approx.,294605.31,5043984.14,45.5356984247767,-73.6305323892848
445,Villeray–Saint-Michel–Parc-Extension,Jarry,,rue Jarry Ouest/boul Saint-Laurent,,,localisation approx.,294940.87,5044098,45.5367278062839,-73.6262381960247
446,Villeray–Saint-Michel–Parc-Extension,Jarry,,rue Jarry Ouest/boul Saint-Laurent,,,localisation approx.,295091.89,5044054.94,45.5363424575949,-73.6243036578376
447,Villeray–Saint-Michel–Parc-Extension,Jean-Valets,,ave Bloomfield/rue de Liège Ouest,,,orthophotographies,293743.71,5043632.27,45.532519035531,-73.6415563036635
448,Villeray–Saint-Michel–Parc-Extension,Parc-école Sinclair-Laird,,rue de Liège Ouest/ave Stuart,,,orthophotographies,293613.52,5043410.72,45.5305233718329,-73.6432180919895
449,Villeray–Saint-Michel–Parc-Extension,Barclay,,ave Wiseman/rue Jarry Ouest,,,localisation approx.,294154.03,5043278.35,45.5293407248877,-73.6362952023537
450,Villeray–Saint-Michel–Parc-Extension,De Lestre,,ave Ball/ave Bloomfield,,,orthophotographies,294388.15,5043390.88,45.5303568476,-73.6333002774071
451,Villeray–Saint-Michel–Parc-Extension,Saint-Roch,,ave Ball/rue Durocher,,,localisation approx.,294520.14,5043615.8,45.5323827184915,-73.631615167919
452,Villeray–Saint-Michel–Parc-Extension,Ogilvy/Outremont,,ave d'Outremont/ave Ogilvy,,,orthophotographies,294892.9,5042983.75,45.5267007001119,-73.6268298738134
453,Villeray–Saint-Michel–Parc-Extension,Birnam,,rue Birnam (face au #7002),,,orthophotographies,295095.32,5042734.89,45.5244642126329,-73.6242335867096
454,Villeray–Saint-Michel–Parc-Extension,Champagneur,,ave Champagneur ( face au #7001),,,orthophotographies,295199.26,5042935.17,45.5262678463337,-73.6229069357221
455,Villeray–Saint-Michel–Parc-Extension,Bloomfield,,ave Bloomfield/rue Jean-Talon Ouest,,,orthophotographies,295144.54,5043032.37,45.5271417322229,-73.6236093652309
456,Villeray–Saint-Michel–Parc-Extension,Athéna,,rue Jean-Talon Ouest/ave De L'Épée,,,orthophotographies,295107.61,5043093.12,45.5276878706724,-73.6240833444932
457,Côte-des-Neiges–Notre-Dame-de-Grâce,William-Bowie,chalet,ave Patricia/ave Fielding,,,orthophotographies,293134.77,5035350.3,45.4579845299982,-73.6491558120882
458,Côte-des-Neiges–Notre-Dame-de-Grâce,Loyola,,ave Doherty/ave Somerled,,,localisation approx.,293481.99,5035568.54,45.4599540673173,-73.644721170913
459,Côte-des-Neiges–Notre-Dame-de-Grâce,Loyola,baseball,ave Doherty/ave Somerled,,,orthophotographies,293386.12,5035662.38,45.4607969239049,-73.6459492163766
460,Côte-des-Neiges–Notre-Dame-de-Grâce,Loyola,baseball/soccer,ave Fielding/ave Coronation,,,orthophotographies,293383.88,5035856.04,45.4625395303201,-73.6459823563477
461,Côte-des-Neiges–Notre-Dame-de-Grâce,Loyola,jeux d'eau,ave Doherty/ave Fielding,,,orthophotographies,293307.08,5035665.59,45.4608245131598,-73.646959972098
462,Côte-des-Neiges–Notre-Dame-de-Grâce,Gilbert-Layton,soccer,Chemin de la Côte-Saint-Luc/ave Rosedale,non-fonctionnelle,non-fonctionnelle,orthophotographies,292966.99,5036318.95,45.4666980699797,-73.6513244162037
463,Côte-des-Neiges–Notre-Dame-de-Grâce,Gilbert-Layton,chalet,ave de Chester/ave de Mayfair,,,orthophotographies,293035.26,5036226.07,45.4658634465141,-73.650449136796
464,Côte-des-Neiges–Notre-Dame-de-Grâce,Coffee,module de jeux,rue Coffee/ave Elmhurst,,,orthophotographies,293872.73,5035037.05,45.4551776884524,-73.639713059221
465,Côte-des-Neiges–Notre-Dame-de-Grâce,Trenholme,,rue Sherbrooke Ouest/ave King-Edward,,,orthophotographies,294383.29,5035718.25,45.4613152486457,-73.6331996295958
466,Côte-des-Neiges–Notre-Dame-de-Grâce,Trenholme,,rue Sherbrooke Ouest/rue Park Row Est,,accès restreint - parc à chien,orthophotographies,294476.45,5035721.74,45.4613480362014,-73.6320084587962
467,Côte-des-Neiges–Notre-Dame-de-Grâce,Trenholme,soccer,rue Sherbrooke Ouest/rue Park Row Est,,,orthophotographies,294574.4,5035683.35,45.4610040254168,-73.6307551653141
468,Côte-des-Neiges–Notre-Dame-de-Grâce,Trenholme,module de jeux,rue Park Row Ouest/boul De Maisonneuve Ouest,,,orthophotographies,294479.43,5035611.73,45.4603581582062,-73.6319680438752
469,Côte-des-Neiges–Notre-Dame-de-Grâce,Benny,module de jeux,ave Benny/ave de Monkland,,,orthophotographies,294435.59,5036344.87,45.4669546463596,-73.6325440780968
470,Côte-des-Neiges–Notre-Dame-de-Grâce,de la Confédération,module de jeux,ave West Hill/ave Fielding,,,localisation approx.,293915.38,5036884.56,45.4718031104948,-73.6392086593124
471,Côte-des-Neiges–Notre-Dame-de-Grâce,de la Confédération,soccer,,,,localisation approx.,293689.15,5037066.94,45.473440685186,-73.6421061394931
472,Côte-des-Neiges–Notre-Dame-de-Grâce,de la Confédération,soccer,ave West Hill/ave Fielding,,,localisation approx.,293848.81,5036974.65,45.47261274029,-73.6400620606155
473,Côte-des-Neiges–Notre-Dame-de-Grâce,Somerled,tennis,ave de Hampton (face au #4915),,,orthophotographies,294233.16,5037166.02,45.4743406956899,-73.6351504825351
474,Côte-des-Neiges–Notre-Dame-de-Grâce,Somerled,chalet,ave de Hampton/ave Somerled,,,orthophotographies,294320.2,5037101.39,45.4737604374909,-73.6340358604331
475,Côte-des-Neiges–Notre-Dame-de-Grâce,William-Hurst,chalet,boul Grand/rue de Terrebonn,,,orthophotographies,294537.34,5036669.02,45.4698730000721,-73.6312496325473
476,Côte-des-Neiges–Notre-Dame-de-Grâce,Herbert-Outerbridge,,ave Benny/rue Sherbrooke Ouest,,,orthophotographies,294858.58,5036171.13,45.4653974014459,-73.6271312180279
477,Côte-des-Neiges–Notre-Dame-de-Grâce,Notre-Dame-de-Grâce,module de jeux,ave Marcil/Chemin de la Côte-Saint-Antoine,,,localisation approx.,295778.39,5036974.16,45.4726359250784,-73.615383423971
478,Côte-des-Neiges–Notre-Dame-de-Grâce,Notre-Dame-de-Grâce,chalet,ave Marcil/Chemin de la Côte-Saint-Antoine,,,orthophotographies,295821.83,5037010.4,45.4729625891178,-73.6148285040251
479,Côte-des-Neiges–Notre-Dame-de-Grâce,Georges-Saint-Pierre,module de jeux/soccer,ave d'Oxford (face au #966),,,orthophotographies,296375.93,5036515.35,45.4685148029846,-73.607733232251
480,Côte-des-Neiges–Notre-Dame-de-Grâce,Maurice-Cullen,chalet,chemin Circle/chemin Mira,,,orthophotographies,295413.18,5038182.38,45.4835032186848,-73.6200774195206
481,Côte-des-Neiges–Notre-Dame-de-Grâce,Macdonald,chalet,ave Clanranald/ave Isabella,,,orthophotographies,294147.11,5038224.08,45.4838602804565,-73.6362740125446
482,Côte-des-Neiges–Notre-Dame-de-Grâce,Macdonald,chalet,ave Clanranald/ave Isabella,,,orthophotographies,294149.94,5038227.8,45.4838937978177,-73.6362378913752
483,Côte-des-Neiges–Notre-Dame-de-Grâce,Macdonald,module de jeux,ave Clanranald/ave Isabella,,,localisation approx.,294212.23,5038168.76,45.4833634777392,-73.6354397933304
484,Côte-des-Neiges–Notre-Dame-de-Grâce,Mackenzie-King,chalet,ave Saint-Kevin/ave de Westbury,,,orthophotographies,294400.51,5038853.58,45.4895286144072,-73.6330458093401
485,Côte-des-Neiges–Notre-Dame-de-Grâce,Mackenzie-King,module de jeux,ave Saint-Kevin/ave de Westbury,,,orthophotographies,294359.38,5038802.48,45.4890681806789,-73.6335709174683
486,Côte-des-Neiges–Notre-Dame-de-Grâce,Mackenzie-King,soccer,rue Beaucourt/chemin de la Côte-Sainte-Catherine,,,orthophotographies,294378.6,5039033.73,45.4911493540221,-73.6333299387297
487,Côte-des-Neiges–Notre-Dame-de-Grâce,Van Horne,,ave de Westbury/ave Van Horne,,,orthophotographies,293900.97,5039033.86,45.4911432279005,-73.6394406554284
488,Côte-des-Neiges–Notre-Dame-de-Grâce,Van Horne,jeux d'eau,ave Van Horne/rue Lemieux,,,localisation approx.,293998.18,5039143.81,45.4921341158102,-73.6381993877221
489,Côte-des-Neiges–Notre-Dame-de-Grâce,Nelson-Mandela,module de jeux,ave Barclay/rue Lemieux,,,localisation approx.,293629.52,5039501.58,45.4953476756889,-73.6429241831644
490,Côte-des-Neiges–Notre-Dame-de-Grâce,Nelson-Mandela,,ave Victoria/rue Bouchette,,,orthophotographies,293685.03,5039598.46,45.4962203284726,-73.6422161397431
491,Côte-des-Neiges–Notre-Dame-de-Grâce,Rosemary-Brown (Mclynn),jeux d'eau,place Kenmore,,,orthophotographies,293261.28,5038890,45.4898384316678,-73.6476213509107
492,Côte-des-Neiges–Notre-Dame-de-Grâce,Rosemary-Brown (Mclynn),,ave Mclynn/ave Plamondon,,,orthophotographies,293273.02,5038846.3,45.4894453946461,-73.6474701288036
493,Côte-des-Neiges–Notre-Dame-de-Grâce,Rosemary-Brown (Mclynn),pétanque,ave Mclynn/rue Vézina,,,orthophotographies,293148.99,5038927.66,45.4901754466191,-73.6490588291923
494,Côte-des-Neiges–Notre-Dame-de-Grâce,de la Savane,jardins communautaires,rue de la Savane/place de la Savane,,,orthophotographies,292695.91,5039893.62,45.498859840567,-73.6548791752758
495,Côte-des-Neiges–Notre-Dame-de-Grâce,Roméo-Charrette,module de jeux,ave Glencoe/boul Laird,,,orthophotographies,293728.31,5040730.98,45.5064118906896,-73.6416879327175
496,Côte-des-Neiges–Notre-Dame-de-Grâce,de Dunkerque,module de jeux,ave Kirkfield/rue de Tilly,,,orthophotographies,294310.7,5041398.89,45.5124310102667,-73.6342492110173
497,Côte-des-Neiges–Notre-Dame-de-Grâce,de Kent,piscine,chemin Hudson/ave de Kent,,accès restreint,orthophotographies,294657.26,5040653.33,45.5057272916214,-73.6297982908986
498,Côte-des-Neiges–Notre-Dame-de-Grâce,de Kent,baseball/soccer,ave de Kent/ave Decelles,,,orthophotographies,294471.11,5040352.85,45.5030207194719,-73.6321741489223
499,Côte-des-Neiges–Notre-Dame-de-Grâce,de Kent,soccer,ave Appleton/ave Decelles,,,orthophotographies,294401.43,5040461.31,45.5039956512988,-73.633068109282
500,Côte-des-Neiges–Notre-Dame-de-Grâce,de Kent,tennis,ave Appleton/chemin Hudson,,,localisation approx.,294523.84,5040659.72,45.5057828385782,-73.6315058176878
501,Côte-des-Neiges–Notre-Dame-de-Grâce,Mahatma-Gandhi,,ave Van Horne/ave Linton,,,localisation approx.,294792.27,5040797.37,45.5070253716403,-73.6280734895352
502,Côte-des-Neiges–Notre-Dame-de-Grâce,place de Darlington,module de jeux,place de Darlington (face au #2795),,,orthophotographies,294834.35,5041107.03,45.5098124185075,-73.6275412666725
503,Côte-des-Neiges–Notre-Dame-de-Grâce,Jean-Brillant,,ave Swail/ave Gatineau,,,orthophotographies,295453.54,5039618.18,45.4964237079328,-73.6195884685307
504,Côte-des-Neiges–Notre-Dame-de-Grâce,Jean-Brillant,jeux d'eau,ave Decelles/rue Jean-Brillant,,,orthophotographies,295460.34,5039706.6,45.4972194393272,-73.6195031452835
505,Côte-des-Neiges–Notre-Dame-de-Grâce,De Sousa-Mendes,module de jeux,rue Plantagenet/ave De Soissons,,,orthophotographies,295267.37,5040995.5,45.5088148800661,-73.6219972834211
506,Mercier–Hochelaga-Maisonneuve,de la Promenade-Bellerive,chalet,rue Bellerive/rue Mousseau,,,orthophotographies,304052.31,5051171.61,45.6004478085494,-73.5095843971823
507,Mercier–Hochelaga-Maisonneuve,de la Promenade-Bellerive,,rue Bellerive/ave Mercier,,,orthophotographies,304094.98,5050583.54,45.5951562344791,-73.5090365747883
508,Mercier–Hochelaga-Maisonneuve,Louis-Riel,soccer,ave de Carignan/ave Pérodeau,,,orthophotographies,300595.32,5049150.95,45.5822530182144,-73.5538810255407
509,Mercier–Hochelaga-Maisonneuve,Louis-Riel,baseball,ave de Carignan/rue Gérin-Lajoie,,,orthophotographies,300679.12,5049137.33,45.5821309627958,-73.5528070529467
510,Mercier–Hochelaga-Maisonneuve,Louis-Riel,tennis,rue Gérin-Lajoie/ave Louis-Joseph-Doucet,,,orthophotographies,300627.71,5049034.46,45.5812050010457,-73.5534649679647
511,Mercier–Hochelaga-Maisonneuve,Louis-Riel,terrain d'athlétisme,ave de Carignan/ave Pérodeau,,,orthophotographies,300529.99,5049117.21,45.5819490176114,-73.5547179039095
512,Mercier–Hochelaga-Maisonneuve,Louis-Riel,baseball,rue Du Quesne/rue Pierre-Bédard,,,orthophotographies,300516.15,5049089.32,45.5816979698972,-73.5548950114825
513,Mercier–Hochelaga-Maisonneuve,Louis-Riel,,rue Du Quesne/rue Pierre-Bédard,,,localisation approx.,300475.87,5049007.29,45.5809595899697,-73.5554104496017
514,Mercier–Hochelaga-Maisonneuve,Louis-Riel,,rue Du Quesne/rue Pierre-Bédard,,,localisation approx.,300479.13,5049018.01,45.5810560720294,-73.5553687700059
515,Mercier–Hochelaga-Maisonneuve,Hector-Vinet,,rue Hochelaga/ave Hector,,,orthophotographies,303636.83,5052285.02,45.6104659990572,-73.5149129556681
516,Mercier–Hochelaga-Maisonneuve,Saint-Victor,baseball,ave Pierre-De Coubertin/rue Aubry,,,orthophotographies,303358,5051999.8,45.6078989922141,-73.5184869805495
517,Mercier–Hochelaga-Maisonneuve,Saint-Victor,,rue Hochelaga/rue Taillon,,,localisation approx.,303424.16,5051904.79,45.6070442012042,-73.5176385166422
518,Mercier–Hochelaga-Maisonneuve,Pierre-Bernard,chalet,rue De Teck/boul Pierre-Bernard,,,orthophotographies,302765.13,5051801.26,45.6061109938564,-73.5260869674062
519,Mercier–Hochelaga-Maisonneuve,Pierre-Bernard,,boul Pierre-Bernard/rue de Marseille,,,orthophotographies,302855.14,5051776.78,45.605890973965,-73.5249329446539
520,Mercier–Hochelaga-Maisonneuve,Pierre-Bernard,baseball,rue de Marseille/rue French,,,orthophotographies,302871.72,5051679.09,45.6050119794155,-73.5247200043537
521,Mercier–Hochelaga-Maisonneuve,Sainte-Claire,module de jeux,ave Pierre-De Coubertin/ave Mercier,,,orthophotographies,302945.89,5051089.95,45.5997109390371,-73.5237669275443
522,Mercier–Hochelaga-Maisonneuve,Clément-Jetté (Sud),,rue Notre-Dame Est/boul Pierre-Bernard,,,orthophotographies,303928.71,5051341.68,45.6019780012265,-73.5111690893677
523,Mercier–Hochelaga-Maisonneuve,Pierre-Tétreault,,rue Notre-Dame Est/rue Baldwin,,,orthophotographies,303928.42,5050905.04,45.5980489933402,-73.5111720271025
524,Mercier–Hochelaga-Maisonneuve,Honoré-Mercier,,rue Notre-Dame Est/rue Liébert,,,orthophotographies,304019.16,5050289.35,45.5925089475737,-73.5100079250395
525,Mercier–Hochelaga-Maisonneuve,De La Bruère,,ave Dubuisson/rue Liébert,,,orthophotographies,303245.22,5050504.55,45.5944440792003,-73.5199280985572
526,Mercier–Hochelaga-Maisonneuve,Liébert,baseball,rue Liébert/rue Sainte-CLaire,,,orthophotographies,302688.17,5050757.86,45.5967219656138,-73.5270690767212
527,Mercier–Hochelaga-Maisonneuve,Liébert,module de jeux,rue Cirier/ave Pierre-De Coubertin,,,orthophotographies,302729,5050605.71,45.5953529997929,-73.5265450792913
528,Mercier–Hochelaga-Maisonneuve,Michel-Bourdon,module de jeux,rue Joseph-A.-Rodier,,,orthophotographies,301834.85,5050642.52,45.5956809885948,-73.5380060842325
529,Mercier–Hochelaga-Maisonneuve,Radisson,,rue Radisson (face au #5260),,,orthophotographies,301286.3,5050060.69,45.5904429608722,-73.5450329851459
530,Mercier–Hochelaga-Maisonneuve,Beauclerk,chalet,ave Émile-Legrand/rue La Fontaine,,,orthophotographies,303251.72,5048974.81,45.5806790403871,-73.5198399362237
531,Mercier–Hochelaga-Maisonneuve,Carlos-D'Alcantara,chalet,rue De Contreceour,,,orthophotographies,302183.83,5052627.44,45.6135432313126,-73.5335436444706
532,Mercier–Hochelaga-Maisonneuve,Carlos-D'Alcantara,soccer,rue De Contreceour/rue Rousseau,,,orthophotographies,301986.33,5052677.86,45.6139961516469,-73.5360762128935
533,Mercier–Hochelaga-Maisonneuve,Rougemont,chalet,rue Bossuet/rue Ontario Est,,,orthophotographies,302623.07,5047738.43,45.5695520204248,-73.5278900609871
534,Mercier–Hochelaga-Maisonneuve,Rougemont,,rue La Fontaine/ave Rougemont,,,orthophotographies,302713.36,5047658.27,45.5688309912816,-73.5267329552429
535,Mercier–Hochelaga-Maisonneuve,Olivier-Guimond,,rue Dickson/rue Boileau,,,orthophotographies,301534.01,5047928.72,45.5712600524749,-73.5418439827306
536,Mercier–Hochelaga-Maisonneuve,Thibodeau,,ave Pierre-De Coubertin/rue Lacordaire,,,orthophotographies,301639.22,5048073.8,45.572566014392,-73.5404969669424
537,Mercier–Hochelaga-Maisonneuve,Jean-Amyot,,rue Du Quesne/ave Pierre-De Coubertin,,,orthophotographies,301727.97,5048410.37,45.5755949749593,-73.5393619883193
538,Mercier–Hochelaga-Maisonneuve,Jean-Amyot,bocce,rue Du Quesne/rue de Marseille,,,orthophotographies,301668.98,5048433.74,45.5758050026014,-73.5401179780467
539,Mercier–Hochelaga-Maisonneuve,Jean-Amyot,baseball,rue de Marseille/ave de la Pépinière,,,orthophotographies,301638.76,5048550.11,45.5768519995382,-73.5405059417569
540,Mercier–Hochelaga-Maisonneuve,Saint-Donat,,rue Arcand/rue de Marseille,,,orthophotographies,301905.85,5049274.57,45.5833720748228,-73.5370879277236
541,Mercier–Hochelaga-Maisonneuve,Saint-Donat,soccer,rue Arcand/rue de Marseille,,,orthophotographies,301972.39,5049238.08,45.5830440004458,-73.536235020468
542,Mercier–Hochelaga-Maisonneuve,Saint-Donat,,ave Parkville/ave Pierre-De Coubertin,,,orthophotographies,301983.35,5049133.94,45.5821069616718,-73.5360939707286
543,Mercier–Hochelaga-Maisonneuve,Guillaume-Couture,,ave Rodolphe-Mathieu/ave Albani,,,orthophotographies,299966.46,5049297.54,45.5835679937209,-73.5619410210712
544,Mercier–Hochelaga-Maisonneuve,Guillaume-Couture,module de jeux,rue Du Quesne/ave De Charette,,,orthophotographies,299998.22,5049202.61,45.5827140052139,-73.5615330889512
545,Mercier–Hochelaga-Maisonneuve,Francesca-Cabrini,,ave Rodolphe-Mathieu/rue De Cadillac,,,orthophotographies,299864.82,5049152.93,45.5822660361375,-73.563242059172
546,Mercier–Hochelaga-Maisonneuve,Pierre-Bédard,chalet,rue Lacordaire/rue Gérin-Lajoie,,,orthophotographies,300564.07,5048633.54,45.5775970158668,-73.5542769935438
547,Mercier–Hochelaga-Maisonneuve,rue Chauveau (Îlot de voirie),,rue Chauveau/boul de L'Assomption,,Îlot de voirie aménagé,orthophotographies,300969.96,5047594.08,45.568245978574,-73.5490679873834
548,Mercier–Hochelaga-Maisonneuve,Théodore,,rue Théodore/rue Hochelaga,,,orthophotographies,301319.58,5046772.84,45.5608580259665,-73.5445830385564
549,Mercier–Hochelaga-Maisonneuve,Théodore,,rue Théodore/rue Hochelaga,,,orthophotographies,301392.48,5046738.57,45.5605500136057,-73.5436489749653
550,Mercier–Hochelaga-Maisonneuve,Saint-Clément,baseball,rue Ontario Est/rue Ida-Steinberg,,,orthophotographies,302123.51,5046775.11,45.5608820070611,-73.5342849735207
551,Mercier–Hochelaga-Maisonneuve,Saint-Clément,module de jeux,rue La Fontaine/rue Vimont,,,orthophotographies,302204.66,5046685.28,45.5600739936212,-73.533244991666
552,Mercier–Hochelaga-Maisonneuve,Ovila-Pelletier,module de jeux,ave Bennett/rue Ontario Est,,,orthophotographies,301702.41,5046115.62,45.5549459447007,-73.5396749509618
553,Mercier–Hochelaga-Maisonneuve,Morgan,chalet,ave Morgan/rue Sainte-Catherinre Est,,,orthophotographies,302222.14,5045724.76,45.5514309678741,-73.5330160200404
554,Mercier–Hochelaga-Maisonneuve,Morgan,,ave Morgan/rue Sainte-Catherinre Est,,,localisation approx.,302264.27,5045660.64,45.5508541481727,-73.532476106583
555,Mercier–Hochelaga-Maisonneuve,Jacques-Blanchet,,ave Jeanne-D'Arc/rue Ontario Est,,,orthophotographies,301600.64,5045435.96,45.5488296655289,-73.5409740099984
556,Mercier–Hochelaga-Maisonneuve,de Saint-Aloysius,chalet,ave Valois/rue Drouin,,,orthophotographies,301603.4,5045125.55,45.5460364979809,-73.5409366353322
557,Mercier–Hochelaga-Maisonneuve,Lalancette,,rue Hochelaga/rue Nicolet,,,orthophotographies,301001.52,5045445.89,45.5489160093782,-73.548646978111
558,Mercier–Hochelaga-Maisonneuve,Lalancette,,rue Hochelaga/rue Nicolet,,,orthophotographies,300985.25,5045404.89,45.5485469879117,-73.5488550276493
559,Mercier–Hochelaga-Maisonneuve,Lalancette,,rue Hochelaga/rue Nicolet,,,orthophotographies,300934.32,5045442.22,45.5488826156777,-73.5495075764524
560,Mercier–Hochelaga-Maisonneuve,Edmond-Hamelin,,rue Sainte-Catherine Est/rue Joliette,,,orthophotographies,301805.56,5044839.23,45.5434609853184,-73.5383459616175
561,Mercier–Hochelaga-Maisonneuve,Hochelaga,,rue Darling/rue Utilités publiques (La Fontaine),,,orthophotographies,301351.32,5044709.1,45.5422879274473,-73.544161913674
562,Mercier–Hochelaga-Maisonneuve,Hochelaga,,rue Darling/rue Utilités publiques,,,orthophotographies,301398.38,5044659.63,45.5418430096649,-73.5435589454245
563,Mercier–Hochelaga-Maisonneuve,Square Dézéry,,rue Dézéry/rue John-Easton-Mills,,,orthophotographies,301657.97,5044380.44,45.5393319742965,-73.5402330128322
564,Mercier–Hochelaga-Maisonneuve,Raymond-Préfontaine,,rue Dézéry/rue de Rouen,,,orthophotographies,300696.41,5044691.24,45.5421236667093,-73.5525481806766
565,Mercier–Hochelaga-Maisonneuve,Raymond-Préfontaine,,rue de Rouen/rue Préfontaine,,,orthophotographies,300715.93,5044600.26,45.5413051101424,-73.5522974600296
566,Mercier–Hochelaga-Maisonneuve,place Valois,,ave Valois/rue Ontario Est,,,orthophotographies,301391.13,5045269.97,45.5473350344335,-73.5436560348929
567,Mercier–Hochelaga-Maisonneuve,Thomas-Chapais,chalet,boul Pierre-Bernard/rue Tiffin,,,orthophotographies,301963.85,5052085.07,45.6086619834248,-73.536360999169
568,Mercier–Hochelaga-Maisonneuve,Thomas-Chapais,chalet,boul Pierre-Bernard/rue De Gadbois,,,orthophotographies,302191.89,5052016.29,45.6080439760825,-73.5334370340459
569,Anjou,du Fort-Des Ormeaux,chalet,7775 ave Des Ormeaux,,,orthophotographies,300464.16,5052775.7,45.6148687100366,-73.555593979747
570,Anjou,de Peterborough,,8400 boul de Châteauneuf,,,localisation approx.,300474.57,5052308.53,45.6106650613223,-73.5554563599513
571,Anjou,Des Roseraies,baseball,7070 ave de la Nantaise,,,orthophotographies,300482.47,5050476.49,45.594179922037,-73.5553388646129
572,Anjou,Des Roseraies,baseball,7070 ave de la Nantaise,,,orthophotographies,300592.24,5050350.34,45.5930454615199,-73.5539308283716
573,Anjou,Des Roseraies,tennis,7070 ave de la Nantaise,,,localisation approx.,300485.68,5050478.34,45.5941965887814,-73.5552977376064
574,Anjou,André-Laurendeau,,8361 ave André-Laurendeau,,,localisation approx.,299372.19,5051516.82,45.6035333144783,-73.569581161709
575,Anjou,André-Laurendeau,,8361 ave André-Laurendeau,,,localisation approx.,299297.96,5051674.94,45.6049555363222,-73.5705345265965
576,Anjou,André-Laurendeau,pataugeoire,8361 ave André-Laurendeau,,,localisation approx.,299289.03,5051692.15,45.6051103256722,-73.5706492008561
577,Anjou,Lucie-Bruneau,baseball#1,7051 ave de l'Alsace,,,orthophotographies,298232.61,5051581.18,45.6041026106623,-73.5841907230681
578,Anjou,Lucie-Bruneau,baseball#1,7051 ave de l'Alsace,,,orthophotographies,298233.22,5051582.39,45.6041135043204,-73.5841829194599
579,Anjou,Lucie-Bruneau,baseball#2,7051 ave de l'Alsace,,,orthophotographies,298188.54,5051754.91,45.6056654604972,-73.5847580323684
580,Anjou,Lucie-Bruneau,baseball#2,7051 ave de l'Alsace,,,orthophotographies,298190.33,5051755.25,45.6056685369281,-73.5847350894393
581,Anjou,d'Antioche,pétanque,6995 place d'Antioche,,,orthophotographies,300174.08,5050646.22,45.5957052169838,-73.5592931828694
582,Anjou,de Spalding,,7901 ave Spalding,,travaux prévus en 2019,localisation approx.,300719.94,5051439.62,45.6028478649371,-73.5523032045821
583,Anjou,de Talcy,chalet,8151 ave de Talcy,,,orthophotographies,300166.04,5051934.91,45.607301143546,-73.559408473375
584,Anjou,de Talcy,chalet,8151 ave de Talcy,,,orthophotographies,300171.27,5051937.99,45.6073288930364,-73.5593414527856
585,Anjou,de Verdelles,,8441 place Verdelles,,,orthophotographies,300919.5,5052039.85,45.6082500359404,-73.5497497750791
586,Anjou,du Bocage,chalet,6200 ave du Bocage,,,orthophotographies,300749.4,5050299.75,45.5925911714812,-73.551916090957
587,Anjou,du Bocage,chalet / piscine,6200 ave du Bocage,,accès restreint,orthophotographies,300758.76,5050292.43,45.5925253584912,-73.551796064335
588,Anjou,Roger-Rousseau,baseball,7501 ave Rondeau,,,orthophotographies,300962.21,5052913.57,45.6161122277952,-73.5492090886832
589,Anjou,Roger-Rousseau,baseball,7501 ave Rondeau,,,orthophotographies,300874.55,5053085.01,45.6176543975164,-73.5503344665244
590,Anjou,Roger-Rousseau,,7501 ave Rondeau,,,localisation approx.,300892.31,5052914.25,45.6161179570206,-73.5501053688075
591,Anjou,Goncourt,tennis,7130 ave Goncourt,,,localisation approx.,300341.85,5051415.95,45.6026325540676,-73.5571498065456
592,Anjou,Du Mail (Chénier),piscine,5555 ave de l'Aréna,,accès restreint,orthophotographies,301416.09,5051451.17,45.6029555321637,-73.5433791844765
870,Anjou,Du Mail (Chénier),,5555 ave de l'Aréna,,,localisation approx.,301394.05,5051423.14,45.6027032030283,-73.5436615249945
593,Anjou,Bibliothèque Jean-Corbeil,cour arrière,7500 ave Goncourt,,,localisation approx.,300262.74,5051388.48,45.602384859811,-73.5581636755663
594,Ville-Marie,place Jacques-Cartier,,place Jacques-Cartier/rue Notre-Dame Est,,abreuvoir à chevaux,orthophotographies,300633.58,5040895.9,45.5079713384388,-73.5533204713075
595,Ville-Marie,champ de mars,,rue Saint-Antoine Est/ave de l'Hôtel-de-ville,,,localisation approx.,300470.99,5040960.77,45.5085540755953,-73.5554018162688
596,Ville-Marie,Charles-S.-Cambell,,rue Alexandre-DeSève/rue Gareau,,,localisation approx.,300694.21,5042354.76,45.5210991158927,-73.5525567668808
597,Ville-Marie,square des Frères-Charron,,rue des Soeurs-Grises/rue Marguerite-D'Youville,,,orthophotographies,300525.45,5039892.21,45.4989390544394,-73.5546955364541
598,Ville-Marie,Joe-Montferrand,,rue Frontenac/rue Sainte-Catherine Est,,,orthophotographies,301240.1,5043366.05,45.5302021006045,-73.5455763721019
599,Ville-Marie,Médéric-Martin,,ave Gascon/rue de Rouen,,,orthophotographies,300562.07,5043883.17,45.5348515494671,-73.5542614653835
600,Ville-Marie,Olivier-Robert,,rue Fullum/boul De Maisonneuve Est,,,orthophotographies,300920.47,5043123.85,45.5280209856489,-73.5496665831198
601,Ville-Marie,Espace Pierre-Bourgault,,rue Alexandre-DeSève/rue La Fontaine,,,orthophotographies,300179.09,5042607.92,45.5233739255402,-73.5591530198252
602,Ville-Marie,Berthier,,rue Berthier/rue de la Visitation,,,orthophotographies,299923.16,5042547.48,45.5228283191651,-73.5624286179191
603,Ville-Marie,Brennan/Duke,parc à chien,rue Duke/rue Brennan,,,orthophotographies,300590.59,5039507.55,45.4954781122937,-73.5538587300094
604,Ville-Marie,des Faubourgs,,rue Dorion/rue Ontario Est,,,orthophotographies,300300.39,5042993.72,45.5268462982269,-73.5576037825965
605,Ville-Marie,des Royaux,,ave De Lorimier/rue de Rouen,,,orthophotographies,300143.59,5043305.41,45.5296499751319,-73.559614089924
606,Ville-Marie,des Vétérans,,ave Papineau/rue Logan,,,localisation approx.,300503.05,5042688.46,45.5241007283337,-73.5550066634906
607,Ville-Marie,Fleury-Mesplet,,rue de la Commune Est/rue Berri,,,orthophotographies,300867.61,5041218.45,45.5108751364879,-73.550328020212
608,Ville-Marie,Jean-Narrache,,rue Saint-Timothée/rue Labrecque,,,orthophotographies,299722.54,5042293.44,45.52054093454,-73.5649941285869
609,Ville-Marie,des Joyeux-Vikings,,rue Beaudry/rue Robin,,,localisation approx.,300125.1,5042327.9,45.5208538349453,-73.5598414828981
610,Ville-Marie,Percy-Walters,parc à chien,ave du Docteur-Penfield/rue Redpath,,,localisation approx.,298139.74,5039980.01,45.4997104206882,-73.585223349597
611,Ville-Marie,Percy-Walters,,ave du Docteur-Penfield/rue Redpath,,,localisation approx.,298183.1,5039959.73,45.4995283451997,-73.5846682508461
612,Ville-Marie,Persillier-Lachapelle,,rue Alexandre-DeSève/rue Ontario Est (nord de),,,orthophotographies,299966.78,5042751.1,45.5246608755873,-73.5618722453717
613,Ville-Marie,école Pierre-Dupuy,,ave De Lorimier/rue Ontario Est,,privé,localisation approx.,300265.13,5043222.21,45.5289021110068,-73.5580572942047
614,Ville-Marie,place d'Armes,,rue Notre-Dame Ouest/place d'Armes,,,orthophotographies,300320.48,5040522.41,45.5046085777017,-73.557324008823
615,Ville-Marie,De La Dauversière,,rue Le Royer Est/Place Jacques-Cartier,,,orthophotographies,300614.99,5040929.18,45.5082706945016,-73.5535586639056
616,Ville-Marie,De La Dauversière,,rue Le Royer Est/Place Jacques-Cartier,,,orthophotographies,300645.82,5040943.81,45.5084025256665,-73.5531642337277
617,Ville-Marie,place de la Paix,,rue Juliette-Béliveau/rue Saint-Dominique,,,orthophotographies,299957.92,5041054.25,45.5093918742064,-73.5619689043117
618,Ville-Marie,place D'Youville,,place D'Youville/rue Saint-Pierre,,,localisation approx.,300487.98,5040190.4,45.5016220658392,-73.5551776091092
619,Ville-Marie,Raymond-Blain,,ure Panet (face au #1697),,,localisation approx.,300205.53,5042401.64,45.5215179114233,-73.5588126232372
620,Ville-Marie,Sainte-Marie,,rue Dufresne/rue Provençale,,,localisation approx.,300782.45,5043287.06,45.5294888303093,-73.551434882856
621,Ville-Marie,Saint-Jacques,,rue Saint-André/rue La Fayette,,,localisation approx.,299964.62,5041984.45,45.5177622401209,-73.561892332165
622,Ville-Marie,Saint-Jacques/Lucien-L'Allier (Julia-Drummond),,rue Lucien-L'Allier/rue Saint-Jacques,,,orthophotographies,299541.83,5039271.7,45.493348715794,-73.5672749116833
623,Ville-Marie,Abords du pont Jacques-Cartier,skate park,boul De Maisonneuve Est/ave De Lorimier,,,orthophotographies,300765.46,5042785.65,45.5249768502749,-73.5516482688701
624,Ville-Marie,square Cabot,,ave Atwater/rue Sainte-Catherine Ouest,,,localisation approx.,298233.74,5038828.15,45.4893463754917,-73.5840051340512
625,Ville-Marie,square Dalhousie,,rue Berri/rue Notre-Dame Est,,,localisation approx.,300811.99,5041319.41,45.5117833004814,-73.5510406841283
626,Ville-Marie,square Phillips,,rue Sainte-Catherine Ouest/rue du Square-Phillips,,,localisation approx.,299434.26,5040433.14,45.5037990344848,-73.5686639012603
627,Ville-Marie,Walter-Stewart,chalet,rue D'Iberville/rue de Rouen,,,orthophotographies,300386.21,5043706.99,45.5332651236993,-73.5565115468151
628,Ville-Marie,Jovette-Marchessault,,rue Plessis (face au #1600),,,orthophotographies,300393.15,5042425.45,45.5217333744981,-73.5564111634079
629,Ville-Marie,Robert-Prévost,,rue Saint-Timothée (face au #1827),,,orthophotographies,299946.76,5042123.04,45.5190092043818,-73.5621223103431
630,Ville-Marie,parc de la Presse,,rue Saint-Antoine Ouest/côte de la place d'Armes,,privé,orthophotographies,300276.41,5040651.68,45.5057715193462,-73.5578891605291
631,Ville-Marie,près du parc du Mont-Royal,,ave des Pins Ouest/rue Peel,,au pied de l'escalier,orthophotographies,298391.93,5040522.26,45.5045921771973,-73.5820034636703
632,Ville-Marie,,,rue McTavish/ave du Docteur-Penfield,,,localisation approx.,298670.62,5040446.96,45.5039171007063,-73.5784361566779
633,Ville-Marie,promenade urbaine McTavish,,entre ave du Docteur-Penfield et rue De Maisonneuve Ouest,,,localisation approx.,298761.6,5040398.99,45.5034862399414,-73.5772713187216
634,Ville-Marie,promenade urbaine McTavish,,entre ave du Docteur-Penfield et rue De Maisonneuve Ouest,,,localisation approx.,298788.44,5040382.14,45.5033348483559,-73.5769276503248
635,Ville-Marie,Félix-Antoine-Savard,,rue Montcalm/rue Sherbrooke Est,,,localisation approx.,299741.38,5042461.01,45.5220489326522,-73.5647546966534
636,Ville-Marie,place Émilie-Gamelin,,rue Saint-Hbert/rue Sainte-Catherine Est,,,orthophotographies,300163.45,5041734.09,45.5155107502772,-73.5593449633479
637,Ville-Marie,trottoir coin nord/ouest,,rue Saint-Denis/rue Émery,,,orthophotographies,299844.46,5041674.28,45.5149703615811,-73.5634272303944
638,Ville-Marie,place Vauquelin,,rue Notre-Dame Est/place Jacques-Cartier,,,orthophotographies,300523.39,5040948.19,45.5084411987751,-73.5547311020058
639,Pierrefonds-Roxboro,Centre Sportif George-Springate,tennis,rue Richmond/rue Anderson,,,orthophotographies,277773.4,5039269.33,45.4928238364379,-73.8457848270335
640,Pierrefonds-Roxboro,Centre Sportif George-Springate,soccer,rue Richmond/rue Anderson,,,orthophotographies,277748.04,5039093.06,45.4912367264217,-73.8460995678303
641,Pierrefonds-Roxboro,Centre Sportif George-Springate,baseball,rue Richmond/rue Anderson,,,orthophotographies,277853.25,5039107.48,45.4913705520527,-73.8447543397919
642,Pierrefonds-Roxboro,Brook,parc à chien,rue Brook/rue Harvey,,,orthophotographies,278130.68,5041224.26,45.5104285751715,-73.8413200592078
643,Saint-Laurent,Poirier,module de jeux,rue Trudeau/rue Hislop,,,orthophotographies,292098.64,5041642.23,45.5145838945213,-73.6625668620967
644,Saint-Laurent,Poirier,intérieur du chalet,rue Trudeau/rue Hislop,,accès restreint,orthophotographies,292105.9,5041603.8,45.5142382191323,-73.6624729454178
645,Saint-Laurent,Raymond-Vidal,,rue Khalil-Gibran,,,orthophotographies,291657.8,5043092.26,45.5276236214083,-73.668248109234
646,Saint-Laurent,Alexis-Nihon,tennis,rue Nantel/carré Stewart,,,orthophotographies,289888.29,5039757.53,45.4975808918864,-73.690800059002
647,Saint-Laurent,Gold,pavillon,rue Dorais/rue du Collège,,,orthophotographies,290263.17,5040122.1,45.5008693457363,-73.6860141779515
648,Saint-Laurent,Chamberland,intérieur du chalet,rue Dorais/rue de L'Église,,accès restreint,orthophotographies,289994.42,5040353.22,45.5029434002203,-73.6894600761789
649,Saint-Laurent,Chamberland,intérieur du chalet,rue Dorais/rue de L'Église,,accès restreint,orthophotographies,289999.53,5040358.53,45.5029912900595,-73.6893948464731
650,Saint-Laurent,Chamberland,piscine,rue Dorais/rue de L'Église,,accès restreint,orthophotographies,289995.21,5040366.84,45.5030659749366,-73.689450378035
651,Saint-Laurent,Houde,module de jeux,place Saint-Louis/rue Gratton,,,orthophotographies,290711.28,5040148.15,45.5011129471838,-73.6802809117448
652,Saint-Laurent,Gohier,pétanque,rue Beaudet/rue Buchanan,,,orthophotographies,290679.34,5040948.43,45.5083135272038,-73.6807126566248
653,Saint-Laurent,Gohier,parc à chien (intérieur),rue Beaudet/rue Buchanan,,,orthophotographies,290616.97,5040868.04,45.5075888821344,-73.6815085232466
